"locality","municipality","species_richness","gbif_records","latitude","longitude"
"Alto Anchicayá - El Descanso (Doña Dora)","DAGUA","44","15318","3.53471","-76.75358"
NULL,"DAGUA","42","361","3.481171","-76.8365"
"Finca Alejandría ""El Paraiso de Los Colibries""","CALI","41","13135","3.539459","-76.60638"
"Bosque de San Antonio (Cerro de la Horqueta)","CALI","40","3588","3.489853","-76.6269"
"Carreterra Buenaventura--Km 48-60","DAGUA","38","1095","3.525015","-76.740906"
"Alto Anchicayá","DAGUA","37","828","3.534556","-76.80074"
"La Florida - Bosque de Las Aves","CALI","37","8096","3.528089","-76.61703"
"RN Rio Bravo--Entrada","CALIMA","36","1236","3.881944","-76.562416"
"Bosque de Niebla Km. 18","CALI","36","5521","3.532399","-76.61221"
"Reserva Natural Comunitaria Cerro El Inglés","EL CAIRO","35","636","4.741488","-76.296005"
"Via Antigua a Buenaventura","DAGUA","35","2177","3.608735","-76.8846"
"Vereda Chicoral","LA CUMBRE","35","2734","3.574758","-76.58129"
"RN Rio Bravo--Carretera","CALIMA","34","2295","3.888061","-76.6017"
NULL,"CALI","33","464","3.299195","-76.69325"
"RN Madhú","EL CERRITO","33","1165","3.628431","-76.16426"
"Finca La Araucana","DAGUA","33","3599","3.56699","-76.67878"
"Ecolodge La Minga (acceso restringido)","LA CUMBRE","33","6166","3.56647","-76.58538"
"Parque Natural Nacional - Ucumarí","CARTAGO","31","31","4.679711","-75.8333"
"Finca La Conchita","CALI","30","2545","3.528202","-76.61335"
"RN El Danubio","CALI","29","1025","3.408498","-76.64959"
"Finca Bosque de Niebla","CALI","29","7231","3.530235","-76.61285"
"RN Forestal Bosque de Yotoco","YOTOCO","28","469","3.86873","-76.4311"
"Bajo Anchicayá - Ladrilleros","BUENAVENTURA","28","780","3.61792","-76.91308"
"Mirador de Tenerife","EL CERRITO","28","780","3.741875","-76.07874"
"RNSC San Felipe","CALI","28","1117","3.51858","-76.61845"
"Mirador Verdeplata","CALI","27","217","3.430371","-76.65804"
"RN Nirvana","PRADERA","27","477","3.476034","-76.190186"
"Alto Anchicayá - Quebrada Los Caleños","DAGUA","26","261","3.565273","-76.75777"
"Alto Anchicayá - El Danubio","DAGUA","26","305","3.606614","-76.87972"
"PNN Farallones de Cali--Cañon del Pato","CALI","26","422","3.326644","-76.656075"
"RN San Cipriano-Escalerete","BUENAVENTURA","26","2742","3.829627","-76.89197"
"PNN Farallones de Cali--Queremal","DAGUA","25","80","3.500851","-76.72146"
"Mirador Barlovento","PRADERA","25","240","3.46532","-76.18603"
"Carretera Vieja Buenaventura--Km 60-76","BUENAVENTURA","25","310","3.616087","-76.88397"
"PNN Farallones de Cali--Yatacue","BUENAVENTURA","25","461","3.574714","-76.87943"
"Balcón de los Colibríes","CALI","25","1123","3.326917","-76.621185"
"PNN Farallones de Cali--Camino a Pico Pance","CALI","24","59","3.332258","-76.664055"
"Pichindé (corregimiento)","CALI","24","118","3.433511","-76.61456"
"ZYGIA, Estación Biológica ICESI","CALI","24","148","3.442223","-76.66347"
"Via Dapa-Chicoral (El Filo)","YUMBO","24","350","3.569901","-76.57603"
"Paso Galapagos--Camino Galapagos","EL CAIRO","24","384","4.83131","-76.18102"
"Reserva Forestal Natural del Río Guadalajara de Buga","BUGA","24","417","3.875481","-76.17392"
"PNN Tatamá--Águila Valle","EL ÁGUILA","23","31","4.952013","-76.08284"
"km 18","CALI","23","109","3.518147","-76.62"
"PNN Farallones de Cali--El Topacio a Pico de Loro","CALI","23","171","3.315044","-76.63857"
"Centro de Educación Ambiental La Teresita","CALI","23","302","3.449194","-76.66126"
"Hacienda Los Morales, Dapa","YUMBO","23","567","3.579831","-76.5721"
"Hacienda El Paraíso","CALIMA","23","599","3.944742","-76.492004"
"Finca Debusale","YUMBO","23","816","3.560504","-76.57638"
"Santa Lucia, Casa El Establo","CALI","22","43","3.535672","-76.6089"
"Finca La Aurora","CALI","22","130","3.32237","-76.623375"
"El Nilo","CALI","22","131","3.325811","-76.62851"
"Finca Manzanares","CALI","22","272","3.454752","-76.664406"
"PNN Farallones de Cali--Centro de Educación Ambiental El Topacio","CALI","22","326","3.317668","-76.63733"
"Km 55 'El Descanso' 'Doña Dora'","DAGUA","22","388","3.53493","-76.75348"
"Ruta Nacional 19 1–83, Cali CO-Valle Del Cauca (3.5479,-76.6124)","DAGUA","21","21","3.547859","-76.6124"
"Parque Natural Nacional - Los Farallones De Cali","CALI","21","21","3.521227","-76.585798"
"Straße 19, Umgebung von Kilometro Diez y Ocho","DAGUA","21","26","3.537237","-76.616982"
"PNR Nima","PALMIRA","21","72","3.518333","-76.111667"
"Finca Alejandría","CALI","21","79","3.517454","-76.62097"
"RN Comunitaria Galapagos","EL CAIRO","21","230","4.826362","-76.17891"
"Pico de Águila","CALI","21","235","3.314502","-76.60197"
"San Antonio VdelC","CALI","21","263","3.491349","-76.61801"
"Finca Villa Cielo","CALI","21","423","3.330906","-76.635544"
"PNN Farallones de Cali--El Topacio","CALI","21","446","3.323045","-76.633804"
"Recinto de Los Sueños","LA CUMBRE","21","556","3.569693","-76.58859"
"Ecohotel El Diamante","BUGA","21","976","3.893535","-76.22399"
"La Florida el bosque de las aves","CALI","20","20","3.526289","-76.616753"
"beiderseits der Straße El Queremal bis Dona Dora -km 55","DAGUA","20","28","3.527899","-76.741348"
"Hacienda Tokio--Antigua Antena Telecom","DAGUA","20","78","3.484265","-76.72657"
"Kilómetro 18","CALI","20","79","3.452013","-76.617386"
"Barragan","TULUÁ","20","141","4.006225","-75.9044"
"Bajo Anchicayá--Zona de Cascada","BUENAVENTURA","20","154","3.625984","-76.94296"
"Finca Loma Linda","DAGUA","20","157","3.567943","-76.608505"
"Restaurante La Embajada de Ginebra","CALI","20","161","3.507658","-76.62016"
"El 18","CALI","20","179","3.517601","-76.62023"
"Bichacue Yath Arte y Naturaleza","CALI","20","190","3.454595","-76.634544"
"La Cabaña de Chicoral (acceso restringido)","LA CUMBRE","20","231","3.568213","-76.5855"
"Villa de Aurora (Acceso Restringido)","YUMBO","20","252","3.54391","-76.580795"
"Alto Dapa--Arroyohondito","YUMBO","20","265","3.555287","-76.57913"
"Reserva Privada El Paraíso (acceso restringido)","BUENAVENTURA","20","285","3.63442","-76.83559"
"RN Aguaclara","BUENAVENTURA","20","318","3.67014","-76.94476"
"Alto San Luis","DAGUA","20","402","3.478467","-76.652985"
"Km 18 Via Cali - Buenaventura","DAGUA","19","19","3.564963","-76.756243"
"Finca Alejandría Km 18","CALI","19","19","3.539353","-76.60545"
"Avistamiento de Aves Doña Dora","DAGUA","19","33","3.532539","-76.75348"
"Chicoral","LA CUMBRE","19","72","3.56929","-76.58681"
"Reserva Natural Madhú, Las Brisas","EL CERRITO","19","81","3.631589","-76.15499"
"Hacienda Los Morales","YUMBO","19","102","3.57902","-76.570755"
"Vereda El pato, Valle del Cauca, CO (3,327, -76,644)","CALI","19","106","3.327496","-76.64419"
"Represa Alto Anchicayá","BUENAVENTURA","19","113","3.534821","-76.867645"
"PNN Farallones de Cali--La Esmeralda-Pichindé","CALI","19","121","3.443862","-76.62638"
"Villa de Aurora, Dapa","YUMBO","19","133","3.54385","-76.58086"
"Sendero Ecológico Aguas Lindas","VERSALLES","19","135","4.56904","-76.211876"
"Río Cali","CALI","19","138","3.451168","-76.66905"
"Robert Oelman's","DAGUA","19","147","3.56285","-76.60413"
"Vereda Alaska","BUGA","19","173","3.891519","-76.18238"
"Finca La Esmeralda CO-Valle Del Cauca-Santiago De Cali - 3.4439x-76.6265","CALI","19","310","3.443945","-76.62656"
"Anchicayá Nature Camp","BUENAVENTURA","19","564","3.575717","-76.879555"
"Ecolodge La Minga","LA CUMBRE","18","18","3.566374","-76.58527"
"Vereda Río Bravo","CALIMA","18","23","3.941417","-76.56303"
"Bosque Finca Alejandria Km. 18","CALI","18","37","3.540228","-76.60424"
"Parque Nacional Natural Farallones de Cali","CALI","18","47","3.337594","-76.64689"
"Reserva Natural Mi Universo","CALI","18","47","3.536509","-76.60704"
NULL,"BUENAVENTURA","18","50","3.365382","-77.264046"
"Vereda El Diamante","CALI","18","51","3.457618","-76.663185"
"Residencia de Mazariegos (acceso restringido)","DAGUA","18","52","3.654701","-76.685"
"Reserva Natural Bachué - Fundación Farallones","CALI","18","105","3.330756","-76.65393"
"Finca Florida El Bosque De Las Aves Kilómetro 18 Vía Al Mar","CALI","18","120","3.527865","-76.6168"
"El Descanso","DAGUA","18","132","3.51542","-76.75357"
"Finca Lolita","DAGUA","18","172","3.498043","-76.627945"
"Carretera Vieja Buenaventura--Km 80-115","BUENAVENTURA","18","217","3.716829","-76.974945"
"ICESI Station (restricted access)- Parque Nacional Natural Farallones de Cali","CALI","18","243","3.441021","-76.66275"
"National Park Natural Farallones De Cali, Santiago De Cali CO-Valle Del Cauca (3.4419,-76.6628)","CALI","18","271","3.441874","-76.66279"
"Microcuenca Quebrada Pericos","DAGUA","18","285","3.84864","-76.78737"
"El Nido del Bosque","CALI","18","316","3.528737","-76.61609"
"Central hidroelecrica alto anchicaya","BUENAVENTURA","18","748","3.54127","-76.895633"
"Cerro El Trueno","CALI","17","17","3.33202","-76.62488"
"Vía sin nombre, Valle del Cauca, CO (3,496, -76,578)","CALI","17","17","3.49562","-76.577644"
"Balcon de los colibries","CALI","17","17","3.326914","-76.621185"
"San José del Salado","DAGUA","17","25","3.564338","-76.723922"
"Vereda Buenos Aires","CALIMA","17","29","3.88183","-76.588583"
"Finca La Florida","CALI","17","29","3.521615","-76.6174"
"Peñas blancas","CALI","17","30","3.430791","-76.627266"
"Vereda San Pablo Km 18","CALI","17","33","3.513062","-76.62281"
"Unnamed Road, Valle del Cauca, CO (3.539, -76.606)","CALI","17","43","3.539247","-76.60606"
"La Minga","LA CUMBRE","17","45","3.566485","-76.58537"
"Km18 ,S.","CALI","17","45","3.541597","-76.60293"
"Reserva Forestal del Pacífico","DAGUA","17","56","3.537858","-76.62163"
"La Minga Eco-Lodge","LA CUMBRE","17","73","3.566402","-76.58528"
"Alto Pance","CALI","17","81","3.333961","-76.56079"
"Cantar del Bosque","CALI","17","84","3.539421","-76.604"
"Reserva Forestal del Río Bitaco","LA CUMBRE","17","85","3.569236","-76.57944"
"Vereda Alejandría","BUGA","17","117","3.767898","-76.06012"
"Km 18","CALI","17","123","3.51743","-76.62128"
"Comederos de Doña Dora (3.5346,-76.7535)","DAGUA","17","216","3.534586","-76.75353"
"Casa Blanca Buga Alaska Al Rural","BUGA","17","395","3.894965","-76.18042"
"Finca Florida-El Bosque de las aves","CALI","16","16","3.526207","-76.616585"
"Valle del Cauca, CO (3,539, -76,607)","CALI","16","16","3.539372","-76.60677"
"finca bosque de niebla","CALI","16","16","3.530065","-76.61252"
"Peñas Blancas","CALI","16","23","3.425138","-76.65821"
"Cerro de Peñas Blancas","CALI","16","25","3.43216","-76.66904"
"La Cabana","CALI","16","28","3.504183","-76.61948"
"La minga chicoral","LA CUMBRE","16","30","3.566313","-76.58528"
"Km 52 Alto Pisones spot.","DAGUA","16","31","3.52785","-76.74062"
"Farallones de cali","CALI","16","32","3.344168","-76.69583"
"Sector La Holanda","CALIMA","16","44","3.929717","-76.564583"
"PNN Farallones de Cali--Sendero Río San Juan","DAGUA","16","45","3.476692","-76.71361"
"Alto Dapa","YUMBO","16","50","3.56013","-76.57625"
"Río Verde","BUENAVENTURA","16","51","3.53279","-76.83259"
"Finca La Esmeralda CO-Valle Del Cauca-Santiago De Cali - 3.4439x-76.6265 - Mar 18, 2017, 3:24 PM","CALI","16","67","3.443938","-76.62655"
"El Queremal - El Descanso","DAGUA","16","71","3.526614","-76.73388"
NULL,"LA CUMBRE","16","72","3.565692","-76.611847"
"Doña Dora","DAGUA","16","73","3.534572","-76.75406"
"Finca Arco Iris","DAGUA","16","75","3.561937","-76.63897"
"Finca Alejandria","CALI","16","79","3.529142","-76.60631"
"Tenerife","EL CERRITO","16","87","3.729008","-76.07739"
"RN Bonanza","JAMUNDÍ","16","88","3.257278","-76.6556"
"Shangri-La","JAMUNDÍ","16","115","3.306251","-76.60078"
"RN Anahuac Pance","CALI","16","116","3.327929","-76.64423"
"Balneario Valparaiso","DAGUA","16","124","3.848688","-76.79649"
"Alto Potedó","BUENAVENTURA","16","194","3.789756","-76.9887"
"Finca Miramanga--Casa Tángara (histórico)","YUMBO","16","954","3.56039","-76.56641"
"RN Laguna de Sonso","BUGA","16","1779","3.86867","-76.35217"
"Km 18 y Finca Alejandría","CALI","15","15","3.537837","-76.60857"
"Vía sin nombre, Valle del Cauca, CO (3.538, -76.606)","CALI","15","15","3.537614","-76.6064"
"3.528x-76.613 Finca La Conchita - 9 mar. 2018 6:20 PM","CALI","15","15","3.527911","-76.613304"
"Monitoreo Calima","CALIMA","15","17","3.882657","-76.56115"
"Finca la florida","CALI","15","21","3.52699","-76.614784"
"Bosque de Niebla und San Antonia Cloud Forest","DAGUA","15","21","3.497701","-76.627296"
"Finca Florida -Bosque de las aves","CALI","15","23","3.526202","-76.616585"
"Road west out of Cali","DAGUA","15","24","3.526509","-76.73311"
"Auto selected 3.57268, -76.55215","YUMBO","15","27","3.57268","-76.55215"
"Corregimiento Río Bravo, La Betania","CALIMA","15","27","3.87818","-76.58706"
"Valle Bonito","BUGA","15","28","3.77536","-76.014534"
"DCS Cañón del Río Grande, Vereda Roman","RESTREPO","15","29","3.753361","-76.579639"
"Km 18","DAGUA","15","30","3.605703","-76.65118"
"KM-18 - (3.523, -76.617)","CALI","15","38","3.523314","-76.61729"
"Km18, Santiago De Cali CO-Valle Del Cauca (3.5361,-76.6057) 1.970msnm","CALI","15","38","3.53609","-76.60568"
"PNN Farallones de Cali--Los Balcones","JAMUNDÍ","15","48","3.3293","-76.69526"
"RFPR Bitaco","LA CUMBRE","15","49","3.559667","-76.599778"
"Páramo de Las Dominguez","GINEBRA","15","49","3.696013","-76.12281"
"ZYGIA, Estación Biológica ICESi","CALI","15","60","3.442429","-76.66375"
"Vereda El Pato, sitio El Pato","CALI","15","66","3.330556","-76.654028"
"Finca La Florida El Bosque De las aves Kilómetro 18 Vía Al Mar","CALI","15","68","3.528249","-76.61718"
"Parque Natural Regional Páramo del Duende--Centro de Investigación Corporación Autónoma Regional del Valle del Cauca","CALIMA","15","69","4.049015","-76.45744"
"Queremal (pueblo)","DAGUA","15","70","3.523643","-76.71216"
"San Jose del Salado (area general)","DAGUA","15","77","3.557338","-76.73443"
"Paso Galapagos","EL CAIRO","15","79","4.812912","-76.167046"
"Km 55/El Descanso","DAGUA","15","100","3.53493","-76.75306"
"Finca El Pailon","EL CERRITO","15","190","3.699026","-76.07007"
"Reserva Forestal Protectora de Bitaco, finca la Minga","CANDELARIA","15","255","3.33847","-76.35192"
"Distrito de Manejo Integrado de Atuncela--Enclave Subxerofitico","DAGUA","15","329","3.741693","-76.67978"
"Curigua Ecolodg Buga","BUGA","15","340","3.876524","-76.172745"
"Sendero Orgánico","LA CUMBRE","15","548","3.631122","-76.58267"
"Finca La Victoria","JAMUNDÍ","14","14","3.264111","-76.69161"
"Finca La Minga, Chicoral","LA CUMBRE","14","14","3.566374","-76.58527"
"Colombia - Bosque de Niebla","CALI","14","14","3.530235","-76.61285"
"Colombia@3.54,-76.61","CALI","14","14","3.539424","-76.60606"
"Kilometro 18, Via Cali-Buenaventura","CALI","14","14","3.525329","-76.61702"
"Alto dapa Nidito de amor","YUMBO","14","14","3.558594","-76.55644"
"Vereda la Debora","LA CUMBRE","14","14","3.659047","-76.57484"
"PNN Farallones de Cali--Rio Felidia","CALI","14","20","3.458889","-76.63611"
"Chorrera del Indio","CALI","14","20","3.332042","-76.61389"
"La Elvira","CALI","14","20","3.50226","-76.598915"
"Vereda La Cristalina, Finca El Tesoro","CALIMA","14","24","4.00389","-76.48636"
"Valle del Cauca, CO (3.426, -76.654)","CALI","14","26","3.426251","-76.65374"
"RN Refugio Corazones Verdes","YUMBO","14","31","3.579755","-76.54839"
"La Italia","TULUÁ","14","32","3.983764","-75.939964"
"Finca Montebello","LA CUMBRE","14","32","3.566902","-76.58497"
"Restaurante Aquí Me Quedo","DAGUA","14","40","3.53109","-76.619965"
"Condominio Cerro Morales","YUMBO","14","42","3.578527","-76.56996"
"Vía Buenos Aires, Valle del Cauca, CO (3.919, -76.186)","BUGA","14","42","3.91869","-76.18618"
"Reserva Natural Altamira","EL CAIRO","14","43","4.778695","-76.221664"
"Km 18, Vía Cali - Buenaventura","CALI","14","49","3.526209","-76.61681"
"Rio Bravo","CALIMA","14","52","3.880881","-76.619446"
"Finca Florida","CALI","14","55","3.52742","-76.61724"
"Via a La Minga, vereda Chicoral, municipio La Cumbre","LA CUMBRE","14","55","3.568847","-76.578766"
"El Rocío Ecolodge","CALI","14","56","3.33717","-76.594406"
"CO-Valle Del Cauca-Santiago De Cali (3.5182,-76.6199)","CALI","14","56","3.518165","-76.61987"
"Ecohotel Casa Blanca","BUGA","14","64","3.894869","-76.17971"
"Guabas","GINEBRA","14","79","3.7313","-76.2254"
"Finca La Esmeralda CO-Valle Del Cauca-Santiago De Cali - 3.4439x-76.6265 - Feb 26, 2017, 9:59 AM","CALI","14","82","3.443941","-76.62646"
"Nido del Bosque, Cali CO-Valle Del Cauca 3.52868, -76.61611","CALI","14","82","3.528677","-76.61611"
"Finca Zingara (3.54, -76.605)","CALI","14","90","3.539723","-76.60456"
"Río Tatabro","BUENAVENTURA","14","94","3.802595","-76.9891"
"Casa Ashraya Refugio De Las Aves","CALI","14","113","3.503283","-76.61741"
"Balneario La Delfina","DAGUA","14","195","3.82311","-76.78157"
"Reserva De La Sociedad Civil Chorro De Plata","CALI","14","199","3.347959","-76.597336"
"Yumbo, Dapa, Calle del Riachuelo, Casa 'La Elisa'","YUMBO","14","218","3.5578","-76.57321"
"Reserva Santelina","BUGA","14","220","3.847696","-76.183"
"Reserva La Primavera Yotoco","YOTOCO","14","326","3.982496","-76.390045"
"Finca San José de la Montaña","CALI","14","499","3.504529","-76.62066"
"Doña Dora Feeders to Rio Blanco","DAGUA","13","13","3.590109","-76.832115"
"Valle del Cauca, CO (3.333, -76.633)alto pance FINCA VILLA CIELO","CALI","13","13","3.332914","-76.633156"
"Finca Alejandría -El Porvenir","CALI","13","13","3.539635","-76.60638"
"3.56633_-76.58530","LA CUMBRE","13","13","3.56633","-76.5853"
"3.5242x-76.7268 - Dec 5, 2016, 6:04 AM","DAGUA","13","13","3.524201","-76.72677"
"Cali - Dagua, Valle del Cauca, CO (3.519, -76.62)","CALI","13","13","3.518867","-76.619835"
"Reserva Forestal De Yotoco","YOTOCO","13","13","3.869999","-76.389999"
"卡利, Valle Del Cauca, 卡利 CO-Valle Del Cauca (3.5393,-76.6060)","CALI","13","13","3.539294","-76.60595"
"CO-Valle Del Cauca-Cali (3,5606,-76,5760)","YUMBO","13","13","3.560627","-76.576035"
"La Araucaria","CALI","13","13","3.326943","-76.62103"
"CO-Valle del Cauca-Dagua-Buenaventura - 3.527x-76.721","DAGUA","13","13","3.526661","-76.720726"
"Area around km18","CALI","13","13","3.532923","-76.610916"
"Villa de Aurora Eco Lodge-Dapa.","YUMBO","13","15","3.544043","-76.58095"
"Zingara","CALI","13","16","3.5","-76.61694"
"Doña Dora El Descanso EHG, Valle del Cauca, CO (3,535, -76,754)","DAGUA","13","17","3.534747","-76.75355"
"Via Potrerillo - La nevera, Valle del Cauca, CO (3,546, -76,133)","PALMIRA","13","17","3.546026","-76.13321"
"CO-Valle del Cauca-Finca Alejandria Road - 3.539x-76.606 - 22 jul. 2017 11:34 AM","CALI","13","18","3.5392","-76.60612"
"Vereda El pato, Valle del Cauca, CO (3.327, -76.644)","CALI","13","19","3.327451","-76.64416"
"Barragán arriba","TULUÁ","13","20","3.993","-75.925"
"Finca Zingara","CALI","13","21","3.539852","-76.60505"
"RN Valle de Frailejones","SEVILLA","13","23","4.06175","-75.7595"
"Carretera La Primavera El Darién","CALIMA","13","23","3.95637","-76.43754"
"Cerro del Inglés","EL CAIRO","13","25","4.741672","-76.29466"
"3,5208 X -76,6183","CALI","13","26","3.52082","-76.6183"
"Valle del Cauca, CO (3.57, -76.582)","LA CUMBRE","13","26","3.569956","-76.58247"
"Nido del Bosque (formerly Lomazul Ecolodge)","CALI","13","33","3.528543","-76.616035"
"La Minga Ecolodge","LA CUMBRE","13","40","3.566454","-76.585236"
"Singara Km 18","CALI","13","41","3.5399","-76.6045"
"Colombia Valle del Cauca, Doña Dora","DAGUA","13","41","3.53308","-76.75377"
"tenerife","EL CERRITO","13","44","3.720289","-76.07393"
"Carreterra Buenaventura--Senda El Barrion","DAGUA","13","57","3.518713","-76.71831"
"Rio Bravo Valle del Cauca, CO (3,879, -76,56)","CALIMA","13","64","3.87943","-76.56044"
"Anchicaya-- Carretera Queremal-Sabaletas","BUENAVENTURA","13","72","3.662816","-76.87271"
"Colombia","CALI","13","77","3.4493","-76.6608"
"""Cuenca río Bugalagrande, vereda Miraflores, finca la Traviata""","SEVILLA","13","78","3.983944","-75.808972"
"Embalse Calima","CALIMA","13","84","3.877442","-76.557884"
"Reserva Natural la Tierra Nuestra Buga","BUGA","13","100","3.884514","-76.13739"
"Alto Anchicayá","BUENAVENTURA","13","139","3.574667","-76.87815"
"Finca Enebros Km 8 Dapa","YUMBO","13","150","3.556705","-76.5514"
"Universidad Javeriana Cali","CALI","13","300","3.346396","-76.53306"
"Bosque Aracataca. Vereda Triana","RESTREPO","12","12","3.8256","-76.5263"
"Peñas Blancas (casa Oswaldo)","CALI","12","12","3.430673","-76.6626"
"Kilometro 18","DAGUA","12","12","3.538349","-76.61658"
"Bosque Las Brisas - Argelia Valle","PALMIRA","12","12","3.605","-76.4314"
"CO-Valle Del Cauca-Santiago De Cali (3.5393,-76.6061)2019 agosto con Gil","CALI","12","12","3.539346","-76.60609"
"Finca la Florida","CALI","12","12","3.528226","-76.61332"
"Cali: Straße 19 km 18, Finca Alejandria ""El Paraiso de los Colidrie""","CALI","12","12","3.539678","-76.606293"
"Vía a Borrero Ayerbe, Dagua CO-Valle Del Cauca 3.53106, -76.62011","DAGUA","12","12","3.531055","-76.62011"
"Finca la conchita","CALI","12","12","3.527149","-76.613205"
"(3,539, -76,606)","CALI","12","12","3.539299","-76.60589"
"atuncela","DAGUA","12","12","3.737762","-76.674225"
"Via hacia Sevilla","SEVILLA","12","12","4.090216","-75.841545"
"Lee Calvert's Cali Finca","CALI","12","12","3.434","-76.616"
"Aua","BUGA","12","12","3.91372","-76.117256"
"Central Hidroelectrica Bajo Anchocaya","BUENAVENTURA","12","12","3.61399","-76.90857"
"La conchita","CALI","12","12","3.528286","-76.613396"
"La Lolita, El Saladito, Cali","CALI","12","12","3.489003","-76.616806"
"Finca Buenos Aires - Vereda El Retiro","EL CAIRO","12","12","4.786707","-76.199425"
"Finca Alejandría paraíso de los colibríes","CALI","12","14","3.539621","-76.60499"
"Galapagos Road",NULL,"12","19","4.832723","-76.17231"
"Buenaventura, Valle del Cauca, CO (3.526, -76.734)","DAGUA","12","22","3.526026","-76.733574"
"Buenaventura, Valle del Cauca, CO (3.54, -76.757)","DAGUA","12","24","3.539575","-76.75662"
"Robert Oelman's yard","CALI","12","24","3.503431","-76.619316"
"Sendero La Castellana","CALI","12","24","3.333891","-76.64015"
"Dona Dora el descanso","DAGUA","12","24","3.522401","-76.7185"
"Finca La Alborada (acceso restringido)","DAGUA","12","24","3.535917","-76.61494"
"Finca Betania","PALMIRA","12","25","3.584215","-76.17204"
"vereda Chicoral","LA CUMBRE","12","28","3.566399","-76.5849"
"La Choza","BUENAVENTURA","12","28","3.6294","-76.83446"
"Finca Tupambaé","DAGUA","12","35","3.573176","-76.61309"
"Peñas Blancas- 3.402x-76.683 - may 13, 2017 19:18","CALI","12","37","3.402158","-76.683395"
"Cali","CALI","12","41","3.363788","-76.55308"
"Alto Río Sabaletas","BUENAVENTURA","12","42","3.750673","-76.94851"
"4 km NW San Antonio","JAMUNDÍ","12","43","3.25","-76.583333"
"Valle del Cauca, CO (3.611, -76.894)","BUENAVENTURA","12","46","3.610737","-76.89438"
"Doña Dora / El Descanso (3.5347,-76.7535) 1.272 masl","DAGUA","12","46","3.534719","-76.75352"
"Reserva Natural Cantalia","GINEBRA","12","53","3.761103","-76.20411"
"Hábitats BSA Bosque San Antonio, Valle del Cauca, CO (3.512, -76.599)","CALI","12","53","3.512245","-76.599045"
"Fundación Agroambiental Monterrey","LA CUMBRE","12","60","3.579109","-76.59916"
"Reserva Natural de las Aves Las Bangsias","DAGUA","12","63","3.624133","-76.81624"
"El Cominal","CALI","12","66","3.349942","-76.64736"
"""Cuenca río Amaime, vereda la Nevera, finca la Victoria""","PALMIRA","12","68","3.535","-76.078583"
"Restaurante Aquí Me Quedo - Vía a Borrero Ayerbe, Dagua CO-Valle del Cauca (3.5312,-76.6201)","DAGUA","12","71","3.531211","-76.620125"
"Valle del Cauca, CO (3,47, -76,199)","PRADERA","12","96","3.469806","-76.19872"
"Brisas","ARGELIA","12","97","4.76531","-76.13779"
"Ruta Nacional 19 1–83, Santiago De Cali CO-Valle Del Cauca (3.5311,-76.6201) Restaurant “Aquí me Quedo”.","DAGUA","12","99","3.5311","-76.62005"
"Vereda Calimita - Restrepo","RESTREPO","12","111","3.829767","-76.53381"
"Chorro de Plata","CALI","12","120","3.33834","-76.602776"
"Hacienda Guadalajara","PRADERA","12","155","3.471882","-76.203316"
"Parque Natural Regional El Vínculo","BUGA","12","201","3.825656","-76.2978"
"Bosque San Antonio, Cali","CALI","11","11","3.495669","-76.62473"
"Bosques De Alejandría","CALI","11","11","3.539248","-76.606705"
"Finca Florida - El Bosque de las Aves","CALI","11","11","3.526207","-76.616585"
"Bajo Calima","CALIMA","11","11","3.8927","-76.4975"
"Estadero Doña Dora, El Descanso.","DAGUA","11","11","3.534963","-76.752914"
"Alto Calima","CALIMA","11","11","3.939239","-76.515076"
"Darien, Lago Calima North Side","CALIMA","11","11","3.920035","-76.499504"
"Chicoral-Valle del Cauca","LA CUMBRE","11","11","3.574651","-76.581024"
"Parque Natural Regional Páramo del Duende","CALIMA","11","11","4.045833","-76.4475"
"Finca Alexandria","CALI","11","11","3.539553","-76.606415"
"Unnamed Road, Valle del Cauca, CO (3.566, -76.586)la minga ecolodge","LA CUMBRE","11","11","3.566195","-76.58553"
"Vereda Chicoral, La Cumbre, Valle del Cauca","LA CUMBRE","11","11","3.575957","-76.58129"
"Vereda Chicoral, La Cumbre","LA CUMBRE","11","11","3.566864","-76.58362"
"Unnamed Road, Valle del Cauca, CO (3.326, -76.621)","CALI","11","11","3.32634","-76.62073"
"Cali: Straße 19 km 18, Old Buenaventura Road","DAGUA","11","11","3.588978","-76.674103"
"Travel - Cali to Dagua","DAGUA","11","11","3.562233","-76.61123"
"El Manantial","CALI","11","11","3.324823","-76.63097"
"La Paz - El 18, Cali CO-Valle del Cauca 3.52796, -76.61683","CALI","11","12","3.527956","-76.61683"
"Seleccionado automáticamente","GINEBRA","11","14","3.761099","-76.20406"
"""Atuncela, camino destapado""","DAGUA","11","15","3.749944","-76.677056"
"La Cumbre, Valle del Cauca, CO","LA CUMBRE","11","16","3.648079","-76.56691"
"Finca Alejandría ""El Paraiso de los Colibries""","CALI","11","16","3.538757","-76.60631"
"RN La Palma","EL CERRITO","11","17","3.714465","-76.090324"
"Reserva El Porvenir","CALI","11","18","3.518627","-76.614685"
"Finca Chucho","CALI","11","18","3.492346","-76.617836"
"CO-Valle Del Cauca-Santiago de Cali - 3,5550x-76,5792 - 23/04/2016 9:38 a.m. Finca campirana","YUMBO","11","19","3.555029","-76.57923"
"Km 27","DAGUA","11","21","3.597773","-76.64543"
"CO-Valle Del Cauca-Yumbo (3,5728,-76,5523)","YUMBO","11","22","3.572792","-76.55225"
"La Paz - Nido del Bosque - El 18, Cali CO-Valle Del Cauca 3.52784, -76.61616","CALI","11","22","3.527836","-76.616165"
"Los Ceibos-Tenerife, Valle del Cauca, CO (3.677, -76.076)","EL CERRITO","11","22","3.676596","-76.07592"
"Finca Tangara - Los Laureles- Valle del Cauca","CALI","11","24","3.509199","-76.609535"
"La Cascada - Anchicaya","BUENAVENTURA","11","24","3.622139","-76.92996"
"CO-Valle Del Cauca-Santiago De Cali (3.4907,-76.6192)","CALI","11","27","3.490673","-76.61925"
"Danubio-Anchicayá.","DAGUA","11","28","3.609219","-76.883675"
"El Cairo Vereda La Tulia","EL CAIRO","11","31","4.799308","-76.19993"
"(3.449, -76.621) kantú","CALI","11","33","3.448503","-76.62132"
"Via a La Elvira, Valle del Cauca, CO (3.529, -76.616)Finca El Nido Del Bosque","CALI","11","33","3.529123","-76.615814"
"CO-Valle Del Cauca-Cali (3,5439,-76,5807)","YUMBO","11","34","3.54394","-76.580696"
"Unnamed Road, Valle del Cauca, CO (3.512, -76.599)","CALI","11","38","3.512299","-76.5989"
"Restaurante La Chorrera del Indio","CALI","11","39","3.331271","-76.61741"
"Reserva La Montañita Yotoco Valle Del Cauca Primavera","CALIMA","11","42","3.998069","-76.446884"
"Escaleras hacia Cerro Riqueza (ANC)","BUENAVENTURA","11","44","3.595","-76.892"
"La Ventura La Cumbre","LA CUMBRE","11","44","3.631468","-76.582924"
"Vía sin nombre, Valle del Cauca, CO (3.944, -76.492)","CALIMA","11","45","3.94448","-76.49169"
"Parcelacion Los Morales","YUMBO","11","45","3.574587","-76.571014"
"Carretera hacia Cerro Riqueza (ANC)","BUENAVENTURA","11","50","3.598","-76.888"
"Vía a Felidia, Felidia, Valle del Cauca, CO (3.469, -76.629)","CALI","11","51","3.469135","-76.62923"
"Colombia - Valle del Cauca","CALI","11","53","3.527137","-76.617378"
"(3.625, -76.17) Madhú.Los Colores","EL CERRITO","11","54","3.624921","-76.16974"
"Cañón del Río Digua--Cascada de La Virgen","DAGUA","11","62","3.532183","-76.77978"
"Vereda El Topacio, sitio El Topacio","CALI","11","68","3.313972","-76.644222"
"Anchicaya, La Riqueza","BUENAVENTURA","11","71","3.594217","-76.895633"
"PNN Uramba--Ladrilleros","BUENAVENTURA","11","82","3.938889","-77.36528"
"3.5663x-76.5856 - Dec 7, 2016, 5:30 PM","LA CUMBRE","11","86","3.566287","-76.58557"
"Club Campestre de Cali","CALI","11","94","3.368859","-76.54554"
"Los Andes","CALI","11","95","3.41675","-76.633415"
"Restaurante Aqui me Quedo Dagua, I-19 No. 2 a 100","DAGUA","11","107","3.53097","-76.61994"
"Reserva Natural Madhú, La Paula","EL CERRITO","11","111","3.630821","-76.19716"
"Restaurante ""Aquí me quedo""","DAGUA","11","113","3.544978","-76.61552"
"Cafe Tandil, 2254 Calle 2, Valle del Cauca, CO (4,325, -75,834)","CAICEDONIA","11","116","4.324705","-75.83449"
"Finca Daly","YUMBO","11","121","3.560099","-76.561745"
"Museo de la Caña de Azúcar","EL CERRITO","11","125","3.626733","-76.223145"
"Cartago, Vereda El Enfado","CARTAGO","11","181","4.754966","-75.89424"
"Finca La Chacona, Corregimiento Borrero Ayerbe, VDC","DAGUA","11","206","3.567615","-76.608665"
"Finca Ecoturística Villa Estela","FLORIDA","11","352","3.297644","-76.17706"
"PN de La Uva--Cultivo de Aloe Vera","LA UNIÓN","11","403","4.527307","-76.09065"
"Vereda La Clorinda","DAGUA","11","1003","3.548972","-76.63003"
"Finca Ronda Gyrola (histórico)","YUMBO","11","1476","3.55992","-76.56353"
"Camino Galapagos (Valle)",NULL,"10","10","4.837411","-76.212715"
"Valle del Cauca, CO (3.883, -76.135)","BUGA","10","10","3.882879","-76.13454"
"km finca Florida","CALI","10","10","3.527734","-76.61693"
"Km 17","DAGUA","10","10","3.596902","-76.64438"
"Vereda- Bellavista Y Paramillo","BOLÍVAR","10","10","4.483333","-76.3"
"Finca La Gregoria","VERSALLES","10","10","4.625177","-76.28074"
"Entrada Pasando Dapa, Valle del Cauca, CO (3.565, -76.575)","YUMBO","10","10","3.56484","-76.57471"
"San Cipriano und Umgebung","BUENAVENTURA","10","10","3.837058","-76.897621"
"Ruta Nacional 19 2–84, Santiago De Cali CO-Valle Del Cauca (3.5312,-76.6203)","DAGUA","10","10","3.531158","-76.620285"
"La Cabana Restaurant","CALI","10","10","3.503928","-76.61889"
"Valle del Cauca, CO (3,993, -75,925)","TULUÁ","10","10","3.992688","-75.92517"
"Casa de Olman","DAGUA","10","10","3.563217","-76.60318"
"Mirador El Topacio Pance","CALI","10","10","3.322488","-76.63125"
"La Cumbre","LA CUMBRE","10","11","3.63094","-76.582375"
"Anchicaya Valley","DAGUA","10","12","3.543217","-76.757324"
"Via Queremal - El Descanso","DAGUA","10","12","3.526576","-76.73437"
"Alto Anchicayá--old road to Buga, km 50-62","DAGUA","10","12","3.533392","-76.75216"
"La Plata","BUENAVENTURA","10","13","3.93","-77.22934"
"Quebrada El Rincón (Dapa)","YUMBO","10","13","3.569794","-76.57004"
"Unnamed Road, Valle del Cauca, CO (4.822, -76.177)","EL CAIRO","10","13","4.82178","-76.17672"
NULL,"YUMBO","10","14","3.533468","-76.57396"
"vía a Frisoles","BUGA","10","14","3.889057","-76.1765"
"Vereda Alta Cristalina","CALIMA","10","15","4.01086","-76.47628"
"Km El 18","YUMBO","10","15","3.537751","-76.58501"
"Araucana Lodge und Umgebung","DAGUA","10","16","3.574443","-76.619026"
"Corregimiento Bitaco, vereda Chicoral, cuenca alta del río Bitaco","YUMBO","10","16","3.558333","-76.582778"
"Queremal","DAGUA","10","17","3.516667","-76.716667"
"Aqui me quedo","DAGUA","10","17","3.53135","-76.62011"
"Vereda Chicoral, Corregimiento Bitaco, cuenca alta del río Bitaco, Finca Montebello, tras la tambocha","YUMBO","10","17","3.558333","-76.582778"
"Estación Zygia","CALI","10","18","3.441848","-76.66272"
"San Antonio _ Ferrucos",NULL,"10","19","4.833362","-76.2073"
"Reserva Cantalia","GINEBRA","10","20","3.761113","-76.20391"
"760528, Dagua CO-Valle Del Cauca 3.53467, -76.75347","DAGUA","10","20","3.534671","-76.75347"
"Valle del Cauca, CO (3.63, -76.156)madhú Carretera","EL CERRITO","10","20","3.630474","-76.15558"
"760528, Dagua CO-Valle Del Cauca 3.53466, -76.75348","DAGUA","10","20","3.534663","-76.75349"
"La Batea de los colibris, Valle del Cauca, CO (3.325, -76.623)","CALI","10","20","3.324912","-76.622574"
"Habitats BSA Bosque San Antonio","CALI","10","20","3.512284","-76.59894"
"Unnamed Road, Valle del Cauca, CO (3.572, -76.569)","YUMBO","10","20","3.572459","-76.569145"
"El Otobo","DAGUA","10","22","3.570353","-76.617455"
"CO-Valle Del Cauca-Santiago De Cali (3.5746,-76.6188)","DAGUA","10","22","3.574603","-76.6188"
"El Cairo","EL CAIRO","10","22","4.782473","-76.25679"
"Vereda Carpatos","CALI","10","23","3.421667","-76.65056"
"Restaurante Aquí me Quedo","DAGUA","10","24","3.536217","-76.624146"
"22-32 Calle 2, Caicedonia, Valle del Cauca, CO (4.325, -75.834)","CAICEDONIA","10","27","4.32475","-75.834274"
"Finca Hábitats BSA Bosque San Antonio","CALI","10","29","3.512238","-76.59905"
"PNN Uramba--Juanchaco","BUENAVENTURA","10","33","3.932504","-77.34843"
"Via Tribunas - Las Cruz","CALIMA","10","33","3.92457","-76.51205"
"Fausadan finca, Valle del Cauca, CO (3.738, -76.678)","DAGUA","10","34","3.738049","-76.67777"
"Reserva Ecológica El Robledal","CALI","10","38","3.375421","-76.6346"
"Chuscales, Zona de ampliación páramo del Duende","TRUJILLO","10","40","4.255103","-76.43274"
"Reserva La Esperancita","RIOFRÍO","10","41","4.131394","-76.37442"
"RN El Laguito","EL CAIRO","10","43","4.706289","-76.24752"
"Vereda El Cedral, El Águila. Valle del Cauca, CO","EL ÁGUILA","10","43","4.879448","-76.10378"
"Río Blanco","DAGUA","10","51","3.60335","-76.80475"
"Finca Araucana","DAGUA","10","55","3.573935","-76.65462"
"Reserva Natural Nirvana","PRADERA","10","56","3.471271","-76.1917"
"Vereda el Faro","CALI","10","57","3.434459","-76.583954"
"San Cipriano","BUENAVENTURA","10","58","3.827431","-76.89923"
"Finca La Chacona, BORRERO Ayerbe, VDC, COLOMBIA","DAGUA","10","64","3.567557","-76.6086"
"PNR Páramo del Duende","CALIMA","10","66","4.033333","-76.465833"
"Reserva Natural Madhú, Los Colores","EL CERRITO","10","71","3.624883","-76.169754"
"Jardín Botánico Juan María Céspedes","TULUÁ","10","75","4.029408","-76.16692"
"Curigua Ecolodge","BUGA","10","82","3.879074","-76.174126"
"CO-Valle del Cauca-La Cumbre-Unnamed Rd - 3.574x-76.582","LA CUMBRE","10","88","3.573893","-76.58217"
"Cali - Dagua, Valle del Cauca, CO (3.531, -76.62)","DAGUA","10","100","3.53113","-76.61993"
"Anchicaya, Murrapal","BUENAVENTURA","10","108","3.55055","-76.891733"
"El Rayito","BUGA","10","116","3.862453","-76.22569"
"Rio La Vieja Fincas - Valle del Cauca","ALCALÁ","10","150","4.662661","-75.76498"
"La Huerta Hotel","YOTOCO","10","275","3.889448","-76.441925"
"Ecoparque Lago de las Garzas","CALI","10","302","3.331591","-76.536835"
"Zygia trocha principal (3,4396,-76,6637)","CALI","9","9","3.439635","-76.66367"
"Condado Beverly","YUMBO","9","9","3.544226","-76.58194"
"Finca Aurora","CALI","9","9","3.322381","-76.623375"
"Hacienda La Venta","BUGALAGRANDE","9","9","4.1989","-76.0764"
"Finca Alejandria, Valle del Cauca, CO (3,539, -76,606)","CALI","9","9","3.539063","-76.60612"
"Finca Alejandria, -Paraiso de los colibries, km18","CALI","9","9","3.539646","-76.606316"
"Parcelación El Silencio","CALI","9","9","3.528592","-76.61179"
"Carretera El Silencio,El Silencio","CALI","9","9","3.541108","-76.603299"
"3.49x-76.617 - 13 oct. 2016 10:22","CALI","9","9","3.489926","-76.616646"
"Bajo Anchicaya","BUENAVENTURA","9","9","3.76667","-77.10833"
"3,5426 X -76,5917","CALI","9","9","3.54263","-76.59172"
"La Casa de las Nubes","LA CUMBRE","9","9","3.568852","-76.5866"
"3 jul. 2020 2:48 p. m.-3.359, -76.62","CALI","9","9","3.359372","-76.62018"
"La Teresita, CVC","CALI","9","9","3.450291","-76.63333"
"Páramo, Finca La Lutecia - Complejo de Páramos Chilí Barragán","SEVILLA","9","9","4.01248","-75.80737"
"Al Balcon de Los Calibries","DAGUA","9","9","3.521035","-76.61958"
"kilometro diez yocho","DAGUA","9","9","3.537622","-76.62026"
"Peñas Blancas, PNN Farallones de Cali, Valle del Cauca","CALI","9","9","3.429119","-76.65367"
"CO-Valle Del Cauca-Yumbo - 3,5728x-76,5522 - 13/05/2017, 5:16 p.m.","YUMBO","9","9","3.572767","-76.552185"
"(3,555, -76,579)","YUMBO","9","9","3.554938","-76.57941"
"Via Cali - Dagua 32–74, Cali CO-Valle Del Cauca 3.53122, -76.61995 restauran aquí me quedo","DAGUA","9","9","3.531217","-76.61996"
"Vereda San Isidro, finca La Morelia","BOLÍVAR","9","9","4.28091","-76.27705"
"Finca Zingara, La Elvira","CALI","9","9","3.53","-76.6"
"El Discanco","DAGUA","9","9","3.537806","-76.755516"
"Lomalinda","LA CUMBRE","9","9","3.573985","-76.58208"
"El Condado","YUMBO","9","9","3.543951","-76.580925"
"Dagua - Araucana lodge","DAGUA","9","9","3.57458","-76.6187"
"Valle del Cauca - Dapa","YUMBO","9","9","3.566807","-76.55004"
"Via a Bitaco y Lomitas, Valle del Cauca, CO (3,574, -76,62)","DAGUA","9","9","3.573942","-76.61972"
"Quebrada Honda, sector La Tulia","CALI","9","9","3.43496","-76.62936"
"Predio La Morelia, correg. Cerro Azul, municipio Bolivar","BOLÍVAR","9","9","4.28091","-76.27705"
"E28","DAGUA","9","9","3.713523","-76.67324"
"KM 18, San Antonio, Valle del Cauca, Colombia","CALI","9","9","3.532954","-76.61265"
"Via a Bitaco y Lomitas, Valle del Cauca, CO (3.575, -76.619)","DAGUA","9","11","3.574808","-76.618835"
"Pueblo Pance","CALI","9","11","3.331099","-76.63577"
"Buenaventura, Valle del Cauca, CO (3.534, -76.754)","DAGUA","9","11","3.534285","-76.754456"
"Unnamed Road, Valle del Cauca, CO (3,49, -76,616) finca Lolita","CALI","9","11","3.489689","-76.61642"
"Finca El Descanso","DAGUA","9","11","3.534382","-76.75227"
"El Cominal-Corea","CALI","9","12","3.352862","-76.648735"
"Hacienda Tokio, antena Telecom","DAGUA","9","12","3.526865","-76.715195"
"Vereda Palermo","CALIMA","9","12","3.89597","-76.54514"
"Loma Azul","CALI","9","12","3.528601","-76.61619"
"Centro Cultural to La Brasilia","CALI","9","13","3.449058","-76.63152"
"Predio Los Cauchos","EL CERRITO","9","14","3.72075","-76.067"
"Finca La Grandeza de Dios , Potrerillo Palmira Valle del Cauca Colombia","PALMIRA","9","14","3.555943","-76.20863"
"El Cairo Vereda La Cancana","EL CAIRO","9","14","4.783079","-76.20761"
"Finca “El Fisto”","CALI","9","14","3.496892","-76.61249"
"Bajo Calima","BUENAVENTURA","9","15","3.875176","-76.99617"
"Carretera El Queremal - Anchicayá","DAGUA","9","15","3.526454","-76.72622"
"Dapa general area","YUMBO","9","16","3.558311","-76.55664"
"RN Reserva Madhú 2900 m","EL CERRITO","9","17","3.64765","-76.13915"
"Reserva Natural El Laguito","EL CAIRO","9","17","4.701806","-76.23814"
"Balcón de los colibríes, San Francisco, Valle del Cauca, CO (3.338, -76.599)","CALI","9","18","3.337573","-76.59854"
"El Pato, Estación biológica Zygia","CALI","9","18","3.4405","-76.67444"
"El Queremal","DAGUA","9","18","3.533696","-76.71161"
"760009, Cali CO-Valle Del Cauca 3.52797, -76.61684","CALI","9","18","3.527969","-76.616844"
"La Embajada","CALI","9","18","3.51008","-76.6196"
"PNN Farallones de Cali - Estacion Farallones","CALI","9","18","3.446434","-76.67275"
"Galapagos, 1975 m asl","EL CAIRO","9","18","4.823272","-76.17832"
"Valle del Cauca, CO (3.37, -76.623)","CALI","9","18","3.370162","-76.62284"
"El Mocho-Sinai San José Del Palmar Chocó, CO (4,831, -76,204)",NULL,"9","19","4.830885","-76.203575"
"Bajo Calima, Cartón de Colombia, cuartel BV-83","BUENAVENTURA","9","19","3.942107","-76.9684"
"Finca ""El Descanso"", Doña Dora","DAGUA","9","19","3.534473","-76.7536"
"La Barra","BUENAVENTURA","9","20","3.944834","-77.38289"
"Via Las brisas - La Carbonera","EL CAIRO","9","21","4.76925","-76.160805"
"Vía a El Carmen, Valle del Cauca, CO (3.531, -76.62)","DAGUA","9","25","3.53079","-76.62025"
"Buenaventura, Bajo Anchicaya","BUENAVENTURA","9","27","3.61891","-76.91293"
"Upper Anchicaya, Old Bonaventure Road","BUENAVENTURA","9","27","3.63184","-76.90095"
"Agua Clara","BUENAVENTURA","9","28","3.648916","-76.95054"
"Villa Pension Dapa, Valle del Cauca, CO (3.544, -76.581)","YUMBO","9","28","3.543887","-76.58086"
"Valle del Cauca, CO (3,935, -76,489) Alto Tribunas Calima El Darien","CALIMA","9","28","3.935003","-76.48861"
"Araucana Lodge. Valle Del Cauca-Santiago De Cali (3.5745,-76.6188)","DAGUA","9","30","3.574473","-76.61876"
"Playa Juan de Dios","BUENAVENTURA","9","30","3.906814","-77.319534"
"Unknown Location - (3.438, -76.662)","CALI","9","33","3.43833","-76.66174"
"Centro Forestal Tropical del Bajo Calima","BUENAVENTURA","9","33","3.915856","-76.963425"
"Vereda LA GALANA, predio LA PLATINA","EL ÁGUILA","9","35","4.893556","-76.028056"
"La Granjita, Calima El Darien (3,9552,-76,4747)","CALIMA","9","35","3.955162","-76.47467"
"Dagua, Valle Del Cauca, Dagua CO-Valle Del Cauca (3.5388,-76.7549)","DAGUA","9","36","3.538825","-76.75485"
"Monte Icaro, Birds & Coffee (El Líbano)","PALMIRA","9","38","3.503889","-76.193886"
"Bosque de chusque a 2600 a 3090 m camino a Pico Pance3.3335 X -76.6656","CALI","9","39","3.33354","-76.66564"
"Lodge Santa Eulalia (El Saladito)","CALI","9","40","3.479925","-76.61473"
"Casa de Observadores (acceso restringido)","BUENAVENTURA","9","41","3.575149","-76.879166"
"Antigua Estación de Korea","CALI","9","43","3.35823","-76.6599"
"Corregimiento El Salado, Las Hermosas National Natural Park, Buga CO-Valle Del Cauca 3.84720, -76.04388","BUGA","9","45","3.8472","-76.04388"
"restarante mirador","DAGUA","9","45","3.530805","-76.620094"
"Entrada La Minga (Puerta Naranja)","LA CUMBRE","9","48","3.569443","-76.57946"
"""Cuenca río Tuluá, corregimiento Santa Lucía, finca la Cascada""","TULUÁ","9","59","3.974389","-75.97425"
"La Maima","YUMBO","9","64","3.545645","-76.566475"
"Colombia Valle del Cauca, Araucana Lodge","DAGUA","9","70","3.57281","-76.61899"
"Transcepto Casco Urbano El CAIRO - Sonadora","EL CAIRO","9","71","4.764331","-76.219315"
"(3.568, -76.609) La Chacona","DAGUA","9","74","3.56757","-76.60854"
"Cond. Lagos de Maracaibo (3,5620,-76,2040)","PALMIRA","9","76","3.561995","-76.20398"
"Embalse-La Batea","BUENAVENTURA","9","80","3.541717","-76.878883"
"Finca el vergel verda mira flores","BUGA","9","90","3.844828","-76.21848"
"Atuncela, Valle del Cauca, CO (3.737, -76.676)","DAGUA","9","109","3.737437","-76.6756"
"San Alejo, La Buitrera","PRADERA","9","118","3.476097","-76.201965"
"Parque de Las Heliconias - Jardín de Flores Tropicales y Exóticas","CAICEDONIA","9","138","4.312717","-75.87488"
"Ecoparque de La Bandera","CALI","9","149","3.4035","-76.5617"
"Complejo de Humedales de Guarino","JAMUNDÍ","9","373","3.120031","-76.56186"
"Bosque de niebla, Finca Ricon Santo - Complejo de Páramos Chilí Barragán","SEVILLA","8","8","4.10254","-75.84595"
"Km 20-26","DAGUA","8","8","3.542298","-76.618385"
"Via a La Elvira, Valle del Cauca, CO (3.528, -76.614)","CALI","8","8","3.527991","-76.61382"
"Bosque Nublado de San Antonio and lunch at Km 18","DAGUA","8","8","3.497","-76.628"
"Valle del Cauca, CO (3,881, -76,56)","CALIMA","8","8","3.881422","-76.55971"
"Vía a Borrero Ayerbe, Dagua CO-Valle del Cauca 3.53113, -76.62000","DAGUA","8","8","3.531127","-76.62"
"Km 55 Antigua Carretera A Buenaventura CO (3.528, -76.742)","DAGUA","8","8","3.52771","-76.74152"
"El Cairo, Valle del Cauca, CO (4,802, -76,165)","EL CAIRO","8","8","4.801769","-76.16537"
"Los Carboneros","DAGUA","8","8","3.557691","-76.61119"
"Unnamed Road, Valle del Cauca, CO (3.626, -76.593)","LA CUMBRE","8","8","3.625645","-76.59267"
"Unnamed Road, Valle del Cauca, CO (3.572, -76.58)","LA CUMBRE","8","8","3.603041","-76.58192"
"Finca La Lolita","CALI","8","8","3.489712","-76.616554"
"Unnamed Road, Valle del Cauca, CO (3.546, -76.565)","YUMBO","8","8","3.546417","-76.565254"
"La Brasilia, EMCALI","CALI","8","8","3.451633","-76.62829"
"Ascenso Alto Pance","CALI","8","8","3.336172","-76.693085"
"CO-Valle Del Cauca-Cali (3,5285,-76,6155)","CALI","8","8","3.528504","-76.61553"
"Vía La Maria a Buenos Aires (Buga)","BUGA","8","8","3.9305","-76.19801"
"Paraiso de los colibries","CALI","8","8","3.539167","-76.605835"
"Buenaventura, Valle del Cauca, CO (3.533, -76.752)","DAGUA","8","8","3.533344","-76.75208"
"(3.56, -76.576)","YUMBO","8","8","3.56047","-76.57633"
"Shrangri-La","CALI","8","8","3.308974","-76.59202"
"Reserva Regional Bitaco","LA CUMBRE","8","8","3.564194","-76.585335"
"PNN Farallones de Cali--Vereda El Cedral","CALI","8","8","3.464186","-76.640015"
"La Florida bosque de aves, km18","CALI","8","8","3.528205","-76.61712"
"La Colonia","YOTOCO","8","8","3.950516","-76.39175"
"Corregimiento Bítaco, Municipio La Cumbre","LA CUMBRE","8","8","3.607872","-76.59848"
"La Cumbre area","LA CUMBRE","8","8","3.700011","-76.50742"
"Chicoral - Corregimiento Bitaco","YUMBO","8","8","3.566302","-76.563878"
"Cerro El Inglés,S.","EL CAIRO","8","8","4.741174","-76.296555"
"Alto Anchicayá--El Descanso","DAGUA","8","8","3.600543","-76.85842"
"CONDADO bEVERLY","YUMBO","8","8","3.548759","-76.58477"
"Finca Zingara","DAGUA","8","8","3.527778","-76.62111"
"Cali - Dagua, Valle del Cauca, CO","CALI","8","9","3.518152","-76.62008"
"Un pasito a la vez","CALI","8","9","3.353887","-76.611084"
"San Francisco","CALI","8","9","3.325835","-76.62308"
"Alto San Jose del Salado, Valle del Cauca, CO (3.571, -76.73)","DAGUA","8","9","3.570901","-76.72984"
"31 - Ginebra, Valle del Cauca, CO (3,631, -76,197)","EL CERRITO","8","9","3.631017","-76.19725"
"Región del Alto Calima","CALIMA","8","9","3.88","-76.7"
"Finca Costa Rica","EL CAIRO","8","10","4.746577","-76.24662"
"El Cominal - PNN Farallones de Cali","CALI","8","10","3.349077","-76.64669"
"El Cairo Road","EL CAIRO","8","10","4.808961","-76.15856"
"Llano Bajo, Río Bartolo","BUENAVENTURA","8","10","3.683306","-76.972534"
"Lagos de Pance","CALI","8","10","3.333224","-76.60773"
"El Descanso de Doña Dora","DAGUA","8","11","3.524148","-76.75358"
"Auto selected 3.32492, -76.62930","CALI","8","11","3.324924","-76.629295"
NULL,"BUGA","8","11","3.773394","-76.362075"
"Bosque de San Antonio/KM 18","DAGUA","8","12","3.5","-76.63333"
"San Pablo","CALI","8","12","3.496208","-76.62196"
"Cali - Dagua, Valle del Cauca, CO (3.517, -76.621)","CALI","8","12","3.517494","-76.62065"
"Bosque del Silencio","CALI","8","12","3.402416","-76.61489"
"El Sinaí San José del Palmar Chocó, CO (4,836, -76,191)",NULL,"8","12","4.835665","-76.19079"
"Mi Universo","CALI","8","13","3.5362","-76.60568"
"Vereda Chicoral, Corregimiento Bitaco, cuenca alta del río Bitaco","LA CUMBRE","8","13","3.569111","-76.588722"
"Cali - Dagua, Valle del Cauca, CO (3.504, -76.617)","CALI","8","14","3.503694","-76.61703"
"Quebrada El Cuzumbo","CALIMA","8","14","3.902417","-76.648667"
"Corregimiento Bitaco, vereda Chicoral, cuenca alta del río Bitaco","LA CUMBRE","8","15","3.565778","-76.588722"
"CO-Valle Del Cauca-Santiago de Cali - Finca Minga 3,5664x-76,5853 - 17/03/2017, 12:13","LA CUMBRE","8","15","3.566373","-76.58526"
"Reserva Natural El Pital, El Cairo.","EL CAIRO","8","15","4.74926","-76.20278"
"Centro Forestal y Ambiental Bomberos Yumbo","YUMBO","8","15","3.568011","-76.53433"
"Colombia - Estadero Aqui Me Quedo","DAGUA","8","16","3.53109","-76.619965"
"Sector murrapal, Anchicayá, El Danubio, Valle del Cauca","BUENAVENTURA","8","16","3.554837","-76.87566"
"Hotel Casa Blanca","BUGA","8","16","3.894779","-76.179634"
"Villa Cielo","CALI","8","16","3.332","-76.635"
"CO-Valle del Cauca-Buenaventura- 3.574x-76.879 - 13 may. 2017 12:31","BUENAVENTURA","8","16","3.574479","-76.87854"
"Reserva Ecotonos 1 Trayecto Parte Baja","DAGUA","8","16","3.572521","-76.60673"
"Aqui Me Quedo","DAGUA","8","16","3.531102","-76.619865"
"Valle del Cauca los Andes , CO (3.757, -76.056)","EL CERRITO","8","16","3.756591","-76.05598"
"Mid Anchicaya","BUENAVENTURA","8","16","3.610678","-76.8946"
"CO-Valle del Cauca-Pradera - 3,465x-76,186 - 15 may. 2017 12:04 a. m.","PRADERA","8","16","3.465334","-76.186005"
"Finca Zíngara, cgto. La Elvira, vda km 18","CALI","8","16","3.533333","-76.6"
"Páramo de Valle Bonito","BUGA","8","17","3.75275","-76.01994"
"El Cairo (pueblo)","EL CAIRO","8","17","4.761803","-76.22066"
"(3.6189,-76.9039)","BUENAVENTURA","8","18","3.618868","-76.90387"
"Unnamed Road, Valle del Cauca, CO (4,817, -76,166)","EL CAIRO","8","18","4.817199","-76.16598"
"San Antonio Sn José Palmar Chocó, CO (4,833, -76,207)",NULL,"8","19","4.832989","-76.20672"
"Anchicaya,S.","BUENAVENTURA","8","19","3.620144","-76.905106"
"Río San Juan, afluente del Digua, cerca al Queremal","DAGUA","8","21","3.534537","-76.754336"
"Parque Nacional Natural Farallones De Cali, Vereda El Pato","CALI","8","22","3.312366","-76.5799"
"Veereda El Engaño Valle del Cauca, CO (3.579, -76.788)","DAGUA","8","22","3.579379","-76.78782"
"Cali Private residence","CALI","8","22","3.393508","-76.55518"
"Sendero Organico,vereda la ventura,municipio la Cumbre, Valle del Cauca, CO","LA CUMBRE","8","22","3.631585","-76.58321"
"Sendero Chorro De Plata-Otoño","CALI","8","22","3.350753","-76.59728"
"Carretera Buenaventura a Lobo Guerrero, km 28, río Dagua","BUENAVENTURA","8","22","3.8639","-76.83623"
"Parque De Las Heliconias","CAICEDONIA","8","23","4.311949","-75.87557"
"El Mocho-Los límites San José del Palmar Chocó, CO (4,831, -76,203)",NULL,"8","23","4.831027","-76.203445"
"Valle del Cauca, CO (3.628, -76.165)madhú Miravalle","EL CERRITO","8","24","3.627738","-76.165474"
"Vía al Boleo, Valle del Cauca, CO (3.955, -76.475)","CALIMA","8","24","3.955168","-76.47458"
"km18 general","CALI","8","24","3.533633","-76.61022"
"CO-Valle del Cauca-La Cumbre - 3.566x-76.585 - Dec 8, 2016 06:09","LA CUMBRE","8","24","3.566253","-76.58521"
"RN. la Cumbre","LA CUMBRE","8","25","3.639282","-76.552505"
"Vereda El Moral Bajo","EL CERRITO","8","27","3.6752","-76.0895"
"Camino a Minas del Socorro","CALI","8","27","3.398189","-76.655685"
"Parcelacion el Ensueño, Etapa I y II","DAGUA","8","28","3.5675","-76.6089"
"Parque Simón Bolívar Cali","CALI","8","29","3.454605","-76.53325"
"Buenaventura, Valle del Cauca, CO (3.535, -76.754)","DAGUA","8","30","3.534575","-76.75368"
"San Juan, Miravalle","SEVILLA","8","30","4.088217","-75.8039"
"Villacarmelo, Valle del Cauca, CO (3.377, -76.618)","CALI","8","31","3.377426","-76.617775"
"Yatacue","BUENAVENTURA","8","31","3.5747","-76.886767"
"RN la Castalia Alcira Montoya","CAICEDONIA","8","32","4.347221","-75.80459"
"760528, Dagua CO-Valle Del Cauca 3.52698, -76.73372","DAGUA","8","33","3.526975","-76.73372"
"Finca La Chacona","DAGUA","8","38","3.567666","-76.61155"
"Camino Km 18","CALI","8","40","3.530353","-76.6123"
"Hacienda San Sebastián de los Alpes","BUGA","8","45","3.763365","-76.0511"
"Club Del Departamento Cali Valle Delcauca","CALI","8","57","3.344778","-76.5903"
"La Candelaria","CALI","8","58","3.373067","-76.623535"
"Loboguerrero","DAGUA","8","62","3.805139","-76.640306"
"Parque de La Babilla","CALI","8","69","3.36066","-76.53886"
"Bosque Municipal de Palmira","PALMIRA","8","104","3.528379","-76.28646"
"Rio Cali","CALI","8","169","3.44986","-76.55546"
"Zoológico de Cali","CALI","8","236","3.44795","-76.55871"
"Ecoparque Rio Pance","CALI","8","284","3.347538","-76.58038"
"La Pajarera, Lomalarga","CALI","8","441","3.311323","-76.57442"
"Colombia, Valle, Cali, Pance, Vereda El Pato, Finca Eucalipto en Pueblito Pance","CALI","7","7","3.328491","-76.63558"
"el descanso","DAGUA","7","7","3.53471","-76.75358"
"Finca Alejandría","DAGUA","7","7","3.538865","-76.62067"
"El Encanto Ecoturismo de Montaña","BUGA","7","7","3.827473","-76.026375"
"Unnamed Road, Valle del Cauca, CO (3.494, -76.626)","DAGUA","7","7","3.494384","-76.62592"
"""Canada Valley"", SSE of Sevilla","SEVILLA","7","7","4.171924","-75.89345"
"Vía Cerro La Horqueta, San Antonio, Valle del Cauca, CO (3,496, -76,625)","DAGUA","7","7","3.496247","-76.62528"
"La Minga, Via Dapa-Bitaco","YUMBO","7","7","3.569889","-76.57603"
"Casa Madhu","EL CERRITO","7","7","3.630879","-76.196945"
"Dagua","DAGUA","7","7","3.722081","-76.671539"
"Vereda San Isidro, finca Pescadores","TRUJILLO","7","7","4.28994","-76.31069"
"CO-Valle Del Cauca-Santiago De Cali (3.4900,-76.6161)","CALI","7","7","3.490042","-76.61612"
"Villa luz - km 24- 3,5467x-76,6152 - 18/05/2017, 11:15 a.m.","DAGUA","7","7","3.546736","-76.61523"
"CO-Valle Del Cauca-Santiago De Cali (3.4899,-76.6168)","CALI","7","7","3.489864","-76.6168"
"Cristalina Alta, Reserva Natural de la Sociedad Civil Buena Vista","CALIMA","7","7","4.02402","-76.479"
"Valle del Cauca, CO (3.671, -76.944)","BUENAVENTURA","7","7","3.670999","-76.9443"
"Valle del Cauca, CO (3.616, -76.897) Old Buenaventura Road","BUENAVENTURA","7","7","3.615794","-76.89703"
"Vereda Cedrales, finca El Vergel","TRUJILLO","7","7","4.26366","-76.32932"
"Chicoral Dapa, Valle del Cauca, CO (3.569, -76.577)","YUMBO","7","7","3.568777","-76.57658"
"Chicoral","BUGALAGRANDE","7","7","4.151381","-76.03756"
"Kilómetro 18 , Valle del Cauca, CO (3.529, -76.616)","CALI","7","7","3.528776","-76.61601"
NULL,"EL CAIRO","7","7","4.746486","-76.298601"
"Predio El Vergel, correg. Dos Quebradas, municipio Trujillo","TRUJILLO","7","7","4.292454","-76.30206"
"Predio Pescadores, Vereda San Isidro, Bolivar","BOLÍVAR","7","7","4.303238","-76.29871"
"3.6183 X -76.9042","BUENAVENTURA","7","7","3.61829","-76.90417"
"Marandua, Valle del Cauca, CO (3.454, -76.636)","CALI","7","7","3.454216","-76.63567"
"Valle del Cauca, CO (3,445, -76,669)","CALI","7","7","3.444537","-76.66903"
"Vereda el Cairo","EL CAIRO","7","7","4.815791","-76.17633"
"La Leonera, Valle del Cauca, CO (3,454, -76,635)","CALI","7","7","3.454075","-76.63488"
"Carretera KM 18","CALI","7","7","3.532362","-76.611206"
"Vereda Jiguales","YOTOCO","7","7","3.8836","-76.44225"
"CO-Valle Del Cauca-Dagua - 3.5652x-76.7583 - May 14, 2017, 9:36 AM","DAGUA","7","7","3.565177","-76.75835"
"Villa Eugenia","CALI","7","7","3.431783","-76.61765"
"Bahía - De Buenaventura","BUENAVENTURA","7","7","3.883431","-77.062012"
"Aqui Me Quedo restaurant","DAGUA","7","7","3.53109","-76.619965"
"Cantarrana, El Dovio, Valle del Cauca, CO (4.467, -76.274)","ROLDANILLO","7","7","4.467248","-76.27383"
"Bosque De Niebla San Antonio Valle del Cauca, CO (3.491, -76.628)","DAGUA","7","7","3.491255","-76.628265"
"760009, Cali CO-Valle Del Cauca 3.52835, -76.61718 as","CALI","7","7","3.528346","-76.61718"
"Estación Biologica De La Universodad Icesi - Farallones","CALI","7","7","3.441844","-76.66267"
"RNSC El Jurásico (Dagua, Valle) (3,554, -76,607)","DAGUA","7","7","3.554313","-76.60666"
"3,506x-76,615 - 12 mar. 2017 6:46 p. m.","CALI","7","7","3.505941","-76.6151"
"Hotel Villa Saman (refugio campetre), Dagua","DAGUA","7","7","3.567447","-76.6373"
"Parque Nacional de las Heliconias, Caicedonia, Valle del Cauca, Colombia (4.312, -75.875)","CAICEDONIA","7","8","4.312306","-75.874825"
"El Helechal - Camino Minas del Socorro","CALI","7","8","3.410278","-76.66583"
"La Teresita CvcValle del Cauca, CO (3.449, -76.662)","CALI","7","8","3.448984","-76.66222"
"RNSC El Hotizonte","LA VICTORIA","7","8","4.51918","-75.904434"
"Valle del Cauca, Vereda Ginebra (3,77, -76,196)","GINEBRA","7","8","3.770179","-76.1961"
"Vereda Carrizal","EL CERRITO","7","9","3.661222","-76.112167"
"Chicoral","YUMBO","7","9","3.570009","-76.575803"
"Tequendama Valle del Cauca","EL CERRITO","7","9","3.742726","-76.08148"
"Campamento EPSA","BUENAVENTURA","7","9","3.57602","-76.87933"
"Predio La Cumbre","EL CERRITO","7","9","3.7405","-76.076472"
"Via a La Elvira, Valle del Cauca, CO (3.524, -76.618)","CALI","7","10","3.52398","-76.61751"
"Río Azul","CALIMA","7","10","3.929503","-76.674872"
"Rio Frio","RIOFRÍO","7","10","4.15","-76.300003"
"Sendero Chorroplata-puente Amarillo (Río)","CALI","7","10","3.335032","-76.60593"
"Predio El Horizonte","LA VICTORIA","7","10","4.519","-75.9046"
"Parque de la Uva- La Unión Valle","LA UNIÓN","7","10","4.529367","-76.08732"
"Reserva Natural Cerro El Inglés, El Cairo, Valle del Cauca","EL CAIRO","7","10","4.749571","-76.24992"
"Finca Gustavo","CALI","7","10","3.537619","-76.60627"
"Lek Gallo de Roca - Pato Leonera","CALI","7","10","3.451794","-76.66099"
"Puente Amarillo","CALI","7","11","3.333349","-76.609955"
"Unnamed Road, Atuncela, Valle del Cauca, CO (3.738, -76.676)","DAGUA","7","11","3.738267","-76.67627"
"Vía al Boleo, Valle del Cauca, CO (3,955, -76,475)","CALIMA","7","11","3.955217","-76.47465"
"Finca La Teresita","DAGUA","7","11","3.560713","-76.666016"
"Rmus","CALI","7","12","3.393834","-76.58609"
"Localidad desconocida - (3,641, -76,189)","EL CERRITO","7","12","3.641179","-76.18928"
"Llano Bajo, Río Anchicayá","BUENAVENTURA","7","12","3.697635","-76.95831"
"Villa Migelita Colombia","PALMIRA","7","12","3.49897","-76.18811"
"Vereda La Virginia, Predio El Nogal","EL DOVIO","7","12","4.510524","-76.323236"
"Quebrada Lucas, 2 km de la desembocadura en el río Zabaletas","BUENAVENTURA","7","13","3.76872","-76.91643"
"Vereda Mateguadua, Parque Nacional Regional Mateguadua","TULUÁ","7","13","4.027","-76.16025"
"El Otoño","CALI","7","13","3.366208","-76.612045"
"CO-Valle del Cauca-Dagua-Buenaventura - 3.535x-76.753","DAGUA","7","13","3.534658","-76.753494"
"Curigua","BUGA","7","13","3.875592","-76.17135"
"Seleccionado automáticamente-3.531, -76.62","DAGUA","7","14","3.531083","-76.61988"
"Bosque de buenos aires ""El Calvo""","CALI","7","14","3.331396","-76.645065"
"760528, Dagua CO-Valle Del Cauca 3.75101, -76.67318","DAGUA","7","14","3.751013","-76.67318"
"(3,575, -76,619)","DAGUA","7","14","3.574645","-76.618835"
"La Maria, Dagua Valley, W. Colombia","LA CUMBRE","7","14","3.68333","-76.63333"
"Buenaventura,Alto Anchicaya 3.575x-76.879 - May 13, 2017 05:27 AM","BUENAVENTURA","7","14","3.574615","-76.87856"
"9/12/2019 8:23-3,566, -76,585","LA CUMBRE","7","14","3.566358","-76.5853"
"Dapa","YUMBO","7","14","3.53874","-76.5749"
"Colombia- Araucana Lodge","DAGUA","7","14","3.576129","-76.61936"
"Finca el Cominal (3,4863,-76,1722)","PALMIRA","7","14","3.486298","-76.17223"
"Vereda El Jardín","CALI","7","14","3.319128","-76.605237"
"Cristalina alta","CALIMA","7","14","4.02402","-76.479"
"Galapagos Road; lower eastern slope","EL CAIRO","7","14","4.806792","-76.16092"
"Finca Yihad","YUMBO","7","14","3.560217","-76.557"
"Galapagos Road: before pass-eastern slope","EL CAIRO","7","14","4.829158","-76.210144"
"Colombia, Valle, Cali, Pance, La Vorágine, Ecoparque Parque de la Salud","CALI","7","15","3.336462","-76.60111"
"Casa Luz Elena","CALI","7","15","3.371382","-76.59762"
"Via Dapa Km18","DAGUA","7","16","3.549819","-76.60318"
"Valle del Cauca, CO (4.751, -76.243)","EL CAIRO","7","16","4.750979","-76.243195"
"Cali--Km 18, rte 19 W of city","CALI","7","16","3.489647","-76.61677"
"Ecohotel El Castillo","CALI","7","17","3.346002","-76.56958"
"San Antonio, Buenaventura","BUENAVENTURA","7","17","3.850278","-77.00861"
"Rio Tatabro","BUENAVENTURA","7","17","3.671333","-76.94681"
"Finca San Isidro Vereda San José Calima El Darién Valle del Cauca, CO (3,89, -76,499)","CALIMA","7","18","3.889922","-76.49878"
"Altos De San José Del Salado","DAGUA","7","18","3.571303","-76.72832"
"Localidad desconocida - (3.531, -76.62)","DAGUA","7","18","3.531272","-76.619865"
"Murrapal","BUENAVENTURA","7","18","3.550754","-76.8898"
"1128 Carrera 6, El Cairo, Valle del Cauca, CO (4.765, -76.219)","EL CAIRO","7","18","4.764772","-76.219284"
"Antena del Oleoducto","DAGUA","7","18","3.737778","-76.676389"
"Km 50-Los carros Viejos","DAGUA","7","19","3.526758","-76.73382"
"Toxic Tour (3,487, -76,553)","CALI","7","19","3.486931","-76.55305"
"Vereda El Pato La leoonera Valle Del Cauca, CO (3.437, -76.676)","CALI","7","19","3.437217","-76.67569"
"CO-Valle del Cauca-Dagua - 3.609x-76.884 - 10 oct. 2016 19:49","DAGUA","7","21","3.609385","-76.8843"
"CO-Valle del Cauca-El Cairo-Unnamed Road - 4.826x-76.179 - may. 20, 2017 13:52","EL CAIRO","7","21","4.826344","-76.17897"
"CO-Valle Del Cauca-Santiago De Cali (3.5740,-76.6197)","DAGUA","7","21","3.573955","-76.61974"
"Finca yeyo","DAGUA","7","21","3.561533","-76.61716"
"Bitaco (pueblo)","LA CUMBRE","7","22","3.610051","-76.599724"
"Vereda San Isidro (Bolivar, Valle del Cauca)","BOLÍVAR","7","22","4.30242","-76.28655"
"Finca El Guatin Buga Valle Del Cauxa","BUGA","7","24","3.9293","-76.2017"
"Puerto frazadas","TULUÁ","7","24","4.048659","-75.99296"
"Alto Anchicayá- quebrada la Loca/campamento (Yatacue) - 3.5740x-76.8821 - May 14, 2017, 14:40","BUENAVENTURA","7","25","3.573952","-76.88207"
"Verde Esperanza, Valle del Cauca, CO (3.742, -76.078)","EL CERRITO","7","26","3.741965","-76.07764"
"Hacienda San Sebastián de los Alpes - Golondrinas","EL CERRITO","7","26","3.746191","-76.04617"
"Cisneros - Río Pepitas","DAGUA","7","27","3.777422","-76.76093"
"RN San Pedro","BUENAVENTURA","7","27","3.835278","-77.257774"
"Amor y paz a 2500 metros camino a Pico Pance","CALI","7","27","3.33611","-76.66571"
"Vereda Monteredondo","VIJES","7","28","3.76259","-76.5177"
"Valle del Cauca, CO (3.87, -76.132)","BUGA","7","28","3.869719","-76.131935"
"Sendero El Rayito","BUGA","7","28","3.863234","-76.22577"
"Los Olivos (estación de campo U. Icesi), vereda El Pato","CALI","7","28","3.441888","-76.66254"
"Loma Larga","CALI","7","31","3.313769","-76.579666"
"Atuncela","DAGUA","7","31","3.733297","-76.679222"
"Valle del Cauca, CO (3.424, -76.617)","CALI","7","31","3.424388","-76.61706"
"Casa Ashraya","CALI","7","32","3.503619","-76.61712"
"San Antonio, Rio Cali, W Colombia","LA UNIÓN","7","32","4.59334","-76.06349"
"El Cedral","DAGUA","7","36","3.554071","-76.61703"
"Club de Campo Y pesca","CAICEDONIA","7","39","4.320248","-75.827934"
"Marandua La Leonera","CALI","7","40","3.45224","-76.64356"
"La Barra - PNN Uramba Bahía Malaga","BUENAVENTURA","7","42","3.960813","-77.37628"
"PNR El Vínculo","BUGA","7","43","3.832222","-76.300806"
"Riberas del Rosario","JAMUNDÍ","7","49","3.260278","-76.54859"
"RN Villa Maga","CALI","7","49","3.378602","-76.62269"
"RN La Tierra Nuestra","BUGA","7","50","3.915239","-76.11646"
"Calibrí, Vía La Vorágine-Pueblo Pance Km 6","CALI","7","51","3.324664","-76.629166"
"Carretera Caicedonia - Los Tanques","CAICEDONIA","7","55","4.332838","-75.83283"
"760528, Dagua CO-Valle Del Cauca 3.52927, -76.74267","DAGUA","7","56","3.529268","-76.74267"
"Club Campestre Los Farallones","CALI","7","67","3.326215","-76.54085"
"Finca El Mirador Buenos Aires Crrgto De Sampedro","BUGA","7","69","3.923887","-76.17628"
"CO-Valle De Cuaca-Colinas de Arroyohondo 3.5219x-76.5270 - Mar 14, 2017, 7:46 AM","YUMBO","7","104","3.521897","-76.52697"
"Ecoparque El Embudo","CALI","7","108","3.346605","-76.553"
"Bosque EMCARTAGO E.S.P. Cartago, Valle del Cauca, CO","CARTAGO","7","118","4.757752","-75.89683"
"Parque del Acueducto--Colonial San Antonio","CALI","7","197","3.447293","-76.543724"
"Río Lili--Ciudad Jardín","CALI","7","223","3.367494","-76.53812"
"Club Campestre Farallones","CALI","7","328","3.325744","-76.541"
"Bosque Escondido","CALI","7","403","3.359777","-76.54402"
"Valle del Cauca, CO (3,344, -76,696)","CALI","6","6","3.344181","-76.69584"
"760529, Cali CO-Valle Del Cauca 3.55409, -76.61706","DAGUA","6","6","3.554093","-76.61706"
"Buenaventura, Valle del Cauca, CO (3,535, -76,753)","DAGUA","6","6","3.534815","-76.75338"
"Vda Combia, Vía a laguna el Encanto PNN Las Hermosas, Palmira","PALMIRA","6","6","3.711389","-75.968056"
"Valle del Cauca, Sendero los Reyes CO (3.333, -76.673)","CALI","6","6","3.332669","-76.67261"
"dapa","YUMBO","6","6","3.561139","-76.556854"
"Colombia - Alto Anchicayá. El Descanso (Doña Dora)","DAGUA","6","6","3.534716","-76.75345"
"Dona Dora","DAGUA","6","6","3.53482","-76.7533"
"Cristalina Alta, Reserva Natural de la Sociedad Civil La Esmeralda","RIOFRÍO","6","6","4.121359","-76.435459"
"Valle del Cauca, CO (3.591, -76.089)","PALMIRA","6","6","3.59055","-76.08948"
"Cerro El Inglés-La Fontana, Serranía de Paraguas, El Cairo","EL CAIRO","6","6","4.758083","-76.29897"
"Eco Hotel Rural Casablanca","BUGA","6","6","3.894481","-76.17835"
"Valle del Cauca, CO (3.543, -76.764)","DAGUA","6","6","3.543218","-76.76393"
"Vereda El Paraiso, Finca La Delia, Punto de censo 14","ULLOA","6","6","4.731944","-75.819167"
"Valle del Cauca, CO (3.503, -76.74)","DAGUA","6","6","3.503336","-76.74004"
"Colombia@3.53,-76.75","DAGUA","6","6","3.530806","-76.749954"
"Valle del Cauca, CO (3.438, -76.662)","CALI","6","6","3.43833","-76.66174"
"Vereda Punta Larga, finca La Esmeralda","BOLÍVAR","6","6","4.31202","-76.28661"
"Bangsia edwarsi","DAGUA","6","6","3.558294","-76.73335"
"Via Burila y Aures, Valle del Cauca","CAICEDONIA","6","6","4.283573","-75.800285"
"La Arauca, Reserva Natural de la Sociedad Civil El Silencio","TRUJILLO","6","6","4.173275","-76.398263"
"Aqui me Quedo","DAGUA","6","6","3.53109","-76.619965"
"Cristalina Alta, Reserva Natural de la Sociedad Civil Las Palmas","RIOFRÍO","6","6","4.130926","-76.422501"
"Upper Anchicayá Valley","DAGUA","6","6","3.573045","-76.77362"
"Unnamed Road, Valle del Cauca, CO (4.83, -76.18)","EL CAIRO","6","6","4.829623","-76.18019"
"El Danubio y alrededores","BUENAVENTURA","6","6","3.616704","-76.89292"
"Vereda Roman, Restrepo","RESTREPO","6","6","3.771","-76.579"
"Unnamed Road, Valle del Cauca, CO (3.571, -76.583)","LA CUMBRE","6","6","3.570855","-76.58272"
"La Quisquina, Palmira, Colombia","PALMIRA","6","6","3.565249","-76.17943"
"La Esmeralda","DAGUA","6","6","3.662693","-76.71514"
"Toboganes Cañon del rio Pance.Valle del Cauca, CO (3.342, -76.664)","CALI","6","6","3.341517","-76.66369"
"Palmira-Vereda Quisquina","PALMIRA","6","6","3.577229","-76.18135"
"Via a Costa Rica, Valle del Cauca, CO (3.761, -76.204)","GINEBRA","6","6","3.761024","-76.204094"
"Centro de educación ambiental - Las Brisas, Florida","FLORIDA","6","6","3.316508","-76.179596"
"Parcelacion Chorro de Plata","CALI","6","6","3.345066","-76.59376"
"Sendero Peñas Blancas ""Camino al cielo"" - PNN Farallones de Cali","CALI","6","6","3.427422","-76.665504"
"Sendero Orgánico Follajes Y Flores ,Vereda La Ventura, Municipio de La.Cumbre Valle del Cauca, CO","LA CUMBRE","6","6","3.631465","-76.58288"
"San Pablo, Reserva Natural de la Sociedad Civil Los Naranjos","RIOFRÍO","6","6","4.086247","-76.382782"
"Bosque Bendiciones. Vereda Agua Clara","RESTREPO","6","6","3.8256","-76.5253"
"San Fransisco Corregimiento de Pance, Valle del Cauca, CO (3.327, -76.618)","CALI","6","6","3.327215","-76.61843"
"Bajo Anchocaya","BUENAVENTURA","6","6","3.62005","-76.92936"
"Hacienda El Volcán","YOTOCO","6","6","4.021617","-76.3655"
"CO-Valle del Cauca-La Unión-Parque de la uva","LA UNIÓN","6","6","4.526812","-76.09054"
"Carretera Cali-Buenaventura Km 18","DAGUA","6","6","3.520933","-76.62037"
"Ruta- Páramo De Las Hermosas Valle del Cauca, CO (3.526, -76.061)","PALMIRA","6","6","3.525602","-76.06061"
"Casa Lolita","CALI","6","6","3.489807","-76.61659"
"CO-Valle del Cauca-El Cairo-Reserva Natural Altamira.","EL CAIRO","6","6","4.780565","-76.21734"
"Parque Temático de La Doble Espiral","CALI","6","6","3.385085","-76.60745"
"La Italia - Laguna Los Chorros Palmira -Valle del Cauca, CO (3.526, -76.061)","PALMIRA","6","6","3.525734","-76.06112"
"Auto selected 3.89498, -76.17968","BUGA","6","6","3.894981","-76.17968"
"RN Providencia","PALMIRA","6","6","3.5805","-76.0919"
"Ágora Manantial","CALI","6","6","3.451007","-76.63113"
"Bosque La Chapa. Vereda La Chapa","DAGUA","6","6","3.8333","-76.7166"
"Bahia De Málaga","BUENAVENTURA","6","6","3.945174","-77.311123"
"Predio La Esmeralda, vereda Punta Larga, municipio Bolívar","BOLÍVAR","6","6","4.31202","-76.28661"
"Finca Yerbabuena","LA CUMBRE","6","6","3.625828","-76.59267"
"CO-Valle del Cauca-Cali-Avenida Los Cerros Vía La Voragine - 3.346x-76.589","CALI","6","6","3.345793","-76.58915"
"Predios Las Palmas y El Castillo, vereda El Bosque, Toro","TORO","6","6","4.65","-76.11667"
"(3,5119,-76,7674)","DAGUA","6","6","3.511894","-76.7674"
"Finca La Cascada","JAMUNDÍ","6","6","3.228194","-76.703835"
"La Nevera- RNS Peña Lisa","PALMIRA","6","6","3.544261","-76.07649"
"Reserva Natural Nirvana","PALMIRA","6","6","3.483468","-76.21203"
"Hacienda El Castillo","CALI","6","7","3.280364","-76.523888"
"Carretera Cali - Buenaventura, El Engaño","CALI","6","7","3.481667","-76.61053"
"Pericos","DAGUA","6","7","3.856254","-76.80256"
"Pichinde","CALI","6","7","3.433334","-76.61668"
"La Diana, Florida","FLORIDA","6","7","3.332984","-76.18143"
"Rio Anchicaya Valley/General Area","DAGUA","6","7","3.604558","-76.8784"
"RNSC Santa Elena","CAICEDONIA","6","7","4.287016","-75.84707"
"Cumbarco vía a Sevilla Valle del Cauca","SEVILLA","6","7","4.222555","-75.88944"
"Valle del Cauca, CO (3.491, -76.628)","DAGUA","6","7","3.491045","-76.62824"
"Sendero, el 40, Cisneros, Buenaventura, Valle del Cauca, CO (3.869, -76.832)","BUENAVENTURA","6","7","3.868513","-76.83152"
"Valle del Cauca, CO (3.601, -76.858)","DAGUA","6","7","3.601367","-76.8585"
"Parque Natural Regional Mateguadua","TULUÁ","6","7","4.027992","-76.16025"
"Barrio Asprodica, Valle del Cauca, CO (4,9, -76,045)","EL ÁGUILA","6","7","4.900019","-76.045334"
"Anchicaya","BUENAVENTURA","6","7","3.54127","-76.87829"
"Predio Santa Elena","CAICEDONIA","6","7","4.287","-75.8471"
"Sendero Rubio-Pt_Amarillo ( Encanto )","CALI","6","7","3.353192","-76.62065"
"Valle del Cauca, CO (3.623, -76.931)","BUENAVENTURA","6","8","3.622511","-76.930786"
"Sevilla area","SEVILLA","6","8","4.124278","-75.87666"
"La Casita Del Bosque","DAGUA","6","8","3.641532","-76.65674"
"16 ene. 2020 11:39 a. m.-3.528, -76.617","CALI","6","8","3.528186","-76.6173"
"San Antonio","CALI","6","8","3.467929","-76.62058"
"RNSC El Porvenir","LA VICTORIA","6","9","4.513322","-75.89333"
"Porvenir","LA VICTORIA","6","9","4.5133","-75.8929"
"Sonso Lagune bei Buga","BUGA","6","9","3.865625","-76.347687"
"Via a Costa Rica, Valle del Cauca, CO (3,761, -76,204)","GINEBRA","6","9","3.760637","-76.20394"
"La Albania","YOTOCO","6","9","3.963827","-76.38462"
"Finca El Abanico, Peñas Blancas","CALI","6","9","3.4203","-76.6598"
"Valle del Cauca, CO (3.536, -76.578)","YUMBO","6","9","3.536466","-76.57847"
"Finca La Primavera - El Cairo Valle","EL CAIRO","6","9","4.792563","-76.15234"
"Predio Río Bamba","LA VICTORIA","6","10","4.4337","-75.8911"
"Río Pance","CALI","6","10","3.32347","-76.56614"
"Corregimiento La Chica, Finca Los Sueños","TORO","6","10","4.58612","-76.11481"
"RNSC Río Bamba","LA VICTORIA","6","10","4.43392","-75.89074"
"RN Altamira","EL CAIRO","6","10","4.779816","-76.216354"
NULL,"YOTOCO","6","10","3.851177","-76.441303"
"Finca El Nilo","CALI","6","10","3.326153","-76.62854"
"Pueblo Bajo Calima","BUENAVENTURA","6","11","3.998753","-76.97064"
"Turisteando En Atuncela","DAGUA","6","11","3.733508","-76.67789"
"Acapulco - Río Amaime","EL CERRITO","6","11","3.632991","-76.10392"
"Reserva La bendición","DAGUA","6","12","3.53942","-76.76897"
"(3.526, -76.73a4)","DAGUA","6","12","3.526411","-76.73402"
"Valle del Cauca, CO (4.468, -76.271)","ROLDANILLO","6","12","4.468062","-76.27135"
"Marte","RESTREPO","6","12","3.782752","-76.55385"
"Vía Al Jardín De Maria","CAICEDONIA","6","12","4.320785","-75.830956"
"El Danubio, vda. Cárpatos, Cali (PNN Farallones de Cali) 3.4093x-76.6524 - 2.290masl","CALI","6","12","3.409312","-76.652435"
"CO-Valle del Cauca-El Cairo-Unnamed Road - 4.823x-76.179","EL CAIRO","6","12","4.82343","-76.1785"
"1-35 Calle 1, Cartago, Valle del Cauca, CO (4,757, -75,897) bosque seco tropical EMCARTAGO","CARTAGO","6","12","4.75731","-75.896805"
"RN San Cipriano","BUENAVENTURA","6","12","3.875018","-76.99598"
"AUA, Valle del Cauca, CO (3.894, -76.125)","BUGA","6","12","3.893534","-76.125275"
"Reserva Ecotonos 1 Trayecto Parte Alta","DAGUA","6","12","3.571654","-76.600975"
"Dos Quebradas","CALI","6","12","3.38558","-76.6294"
"Confluencia río Zabaletas con quebrada La Bomba","BUENAVENTURA","6","12","3.76272","-76.94264"
"Reserva Forestal Protectora Regional La Albania","YOTOCO","6","12","3.96307","-76.38429"
"Parador Aquí me quedo","DAGUA","6","12","3.531112","-76.61998"
"Auto selected 3.57488, -76.61959","DAGUA","6","12","3.574878","-76.61959"
"EPSA Property (Restricted Access) - La Riquesa to Mirador (600-1100m asl.)","BUENAVENTURA","6","12","3.596981","-76.886955"
"Estadero Aqui me Queda","DAGUA","6","12","3.531098","-76.62007"
"hotel loma azul - (3.529, -76.616)","CALI","6","12","3.528914","-76.61591"
"hostal Santa eulalia","CALI","6","12","3.479783","-76.61058"
"Mirador de Calima","YOTOCO","6","12","3.883831","-76.44027"
"Anchicaya valley","BUENAVENTURA","6","12","3.616308","-76.90558"
"Vía a El Carmen, Valle del Cauca, CO (3.534, -76.621)","DAGUA","6","12","3.533857","-76.62126"
"RN La Bretaña","EL CAIRO","6","13","4.702222","-76.21917"
"Finca Emmanuel","JAMUNDÍ","6","13","3.253265","-76.59936"
"Microcuenca El Jordán","EL CAIRO","6","14","4.785","-76.22845"
"Carrizal-Finca Vesubio","EL CERRITO","6","14","3.662327","-76.090839"
"Río Anchicayá","BUENAVENTURA","6","14","3.6142","-77.009229"
"Reserva Municipal de Uso Sostenible del Río Meléndez","CALI","6","15","3.368543","-76.55574"
"Confluencia río Meléndez y quebrada La Cristalina","CALI","6","15","3.36257","-76.64258"
"Unnamed Road, Valle del Cauca, CO (3.748, -76.679)","DAGUA","6","15","3.749733","-76.67548"
"Loma Chiquique","YOTOCO","6","15","3.840602","-76.39034"
"Paramo del Duende","RIOFRÍO","6","16","4.102605","-76.417435"
"Carretera La Habana a Frisoles","BUGA","6","16","3.883596","-76.1549"
"Río Chancos, Sector Filo Seco","CALIMA","6","16","3.941111","-76.725028"
"Borrero Ayerbe/Km 30","DAGUA","6","17","3.573056","-76.64611"
"San Miguel Alto","CALI","6","17","3.494132","-76.61187"
"Valle del Cauca Páramo Los Domínguez , CO (3.765, -76.061)","BUGA","6","18","3.765281","-76.06091"
"Vereda El Descanso, Valle del Cauca, CO (3.535, -76.753)","DAGUA","6","18","3.534676","-76.753426"
"Finca Rios de Agua Viva","CALIMA","6","18","3.977361","-76.46054"
"Finca el Tesoro","CAICEDONIA","6","18","4.29102","-75.854675"
"CO-Valle del Cauca-La Unión- Parque De La Uva - 4.527x-76.091","LA UNIÓN","6","18","4.526959","-76.090775"
"Sendero Charco La Tortuga, Buenaventura CO-Valle Del Cauca 3.82953, -76.89067","BUENAVENTURA","6","18","3.829525","-76.89067"
"Tenerife, Valle del Cauca, CO (3.726, -76.074)","EL CERRITO","6","18","3.725999","-76.07381"
"dde 3092 a 3700 Balcones Pico Pance 3.3303 X -76.6793","CALI","6","18","3.33028","-76.67926"
"Vereda La Cristalina - Finca Isamar","RIOFRÍO","6","19","4.12867","-76.39685"
"La Granjita","CALIMA","6","19","3.954835","-76.47446"
"San Marcos","BUENAVENTURA","6","20","3.7","-76.95718"
"El Saladito","CALI","6","20","3.482126","-76.6063"
"Finca El Porvenir, El Cairo Valle.","EL CAIRO","6","20","4.737962","-76.21088"
"Alejandría","BUGA","6","21","3.768022","-76.05996"
"Unnamed Road, Atuncela, Valle del Cauca, CO (3.737, -76.676)","DAGUA","6","21","3.737473","-76.67558"
"Pianguita","BUENAVENTURA","6","23","3.839992","-77.19871"
"Finca Mirador Del Topacio","CALI","6","24","3.322322","-76.63042"
"National Park Natural Farallones De Cali, Cali CO-Valle del Cauca 3.42641, -76.65397","CALI","6","24","3.426409","-76.65397"
"Bosque de la Buitrera","CALI","6","24","3.359963","-76.565895"
"(3.5192,-76.6194)","CALI","6","24","3.519194","-76.61943"
"(3.5191,-76.6195)","CALI","6","24","3.519084","-76.619545"
"Cabaña Vabel, Bitaco, Valle del Cauca, CO (3.627, -76.6)","LA CUMBRE","6","24","3.627235","-76.59999"
"San Alejo Área","PRADERA","6","25","3.475025","-76.20172"
"Vereda Los Andes - Tenerife","BUGA","6","27","3.759653","-76.06089"
"Trujillo","TRUJILLO","6","30","4.213247","-76.32049"
"La Araucana","DAGUA","6","30","3.57409","-76.61992"
"La Maria Buga Valle","BUGA","6","32","3.902672","-76.21114"
"Fincas cafeteras de Felidia","CALI","6","32","3.470469","-76.615654"
"Colinas de arroyohondo","YUMBO","6","32","3.521019","-76.52823"
"Reserva Comunitaria Ecológica Venado Verde","BUENAVENTURA","6","34","3.870716","-76.89291"
"Villa Martica","PALMIRA","6","35","3.503482","-76.19356"
"antigua carretera a buenaventura - (3.528, -76.741)","DAGUA","6","38","3.528061","-76.7406"
"Vereda EL CASTILLO, predio LA ARBOLEDA","ANSERMANUEVO","6","38","4.775806","-76.127694"
"Colombia","YUMBO","6","42","3.557424","-76.573373"
"763517, vía Cocuyos Ginebra CO-Valle Del Cauca 3.75997, -76.19448","GINEBRA","6","44","3.759969","-76.19448"
"La Granjita-Calima Darién","CALIMA","6","45","3.955091","-76.47448"
"Jardín Botanico de Cali","CALI","6","52","3.449154","-76.56887"
"Muelle turístico de Buenaventura","BUENAVENTURA","6","52","3.888297","-77.07973"
"Parque del Ingenio","CALI","6","53","3.386789","-76.53044"
"Bosque de las Mercedes","PALMIRA","6","56","3.545418","-76.28857"
"DMI Atuncela","DAGUA","6","58","3.716972","-76.683694"
"Osprey Ecolodge","BUGA","6","60","3.900304","-76.339325"
"Parque El Gato de Tejada","CALI","6","85","3.451351","-76.543015"
"Dapa - Las Flechas, Yumbo, Valle del Cauca, Colombia","YUMBO","6","85","3.557178","-76.543785"
"La Buitrera, Valle del Cauca, CO (3.381, -76.568)","CALI","6","100","3.381202","-76.56799"
"Carretera Vda. Los Andes - Vda. La Alejandría","BUGA","6","122","3.764051","-76.05808"
"Parque Multicentro--Ruta del Sirirí","CALI","6","159","3.379673","-76.540474"
"Cartago, Madrevieja la Zapata","CARTAGO","6","230","4.757888","-75.92774"
"Universidad del Valle","CALI","6","329","3.373942","-76.53441"
"La Paz - El 18, Cali CO-Valle Del Cauca 3.53933, -76.60601","CALI","5","5","3.539331","-76.60601"
"Buenaventura, Valle del Cauca, Casa Doña Dora","DAGUA","5","5","3.534363","-76.753456"
"CO-Valle del Cauca-Dagua-Buenaventura - 3.554x-76.718","DAGUA","5","5","3.554184","-76.7183"
"CO-Valle del Cauca-Dagua-Cali - Dagua - 3,517x-76,621","CALI","5","5","3.517446","-76.620926"
"La Neura","JAMUNDÍ","5","5","3.297556","-76.63719"
"Reserva Natural Mi Cafetal, Vereda El Piñuelo, El Cairo, Alban, Valle del Cauca, CO (4.775, -76.185)","EL CAIRO","5","5","4.774931","-76.18465"
"Carretera Vía Ala Cascada , CO (3.619, -76.907)","BUENAVENTURA","5","5","3.619438","-76.9072"
"restaurante la Cabana","CALI","5","5","3.504731","-76.61882"
"Via Dapa a Alto de los españoles","YUMBO","5","5","3.553021","-76.58515"
"Restaurante La Cabaña","CALI","5","5","3.503655","-76.61874"
"Ridge above El Salado town - 1.730m - CO-Valle Del Cauca-Dagua - 3.5583x-76.7334 - Feb 13, 2017, 08:01","DAGUA","5","5","3.558266","-76.733376"
"Rio Anchicaya","BUENAVENTURA","5","5","3.654706","-77.00365"
"CO-Valle Del Cauca-Cali (3,4896,-76,6167)","CALI","5","5","3.489623","-76.61665"
"Finca Galaica","PRADERA","5","5","3.470973","-76.17116"
"Brasito, Buenaventura","BUENAVENTURA","5","5","3.75358","-77.0829"
"CO-Valle del Cauca-Dagua - 3,539x-76,619 - 22 feb. 2017 12:32 p. m.","DAGUA","5","5","3.539231","-76.619064"
"Finca Rosita","DAGUA","5","5","3.50926","-76.62328"
"Auto selected 3.52206, -76.52712","YUMBO","5","5","3.522064","-76.52712"
"Predio La Gitana","RIOFRÍO","5","5","4.1671","-76.3365"
"Predio El Tabor, vereda Balcanes alto, municipio El Dovio","EL DOVIO","5","5","4.591709","-76.32298"
"Finca El tesoro, Vereda Alta Cristalina","CALIMA","5","5","4.008777","-76.480804"
"9 may. 2020 8:05 p. m.-3,551, -76,577","YUMBO","5","5","3.55119","-76.57703"
"Bosque La Tigra","DAGUA","5","5","3.49827","-76.63706"
"Finca El Guaico, Valle del Cauca, CO (3.324, -76.177)","FLORIDA","5","5","3.323617","-76.176636"
"Pichinde --Yanaconas","CALI","5","5","3.433333","-76.61667"
"Carretera arriba de Tenerife --- Puente","EL CERRITO","5","5","3.756012","-76.06557"
"Reserva Jurasico, Finca los Carboneros","DAGUA","5","5","3.552339","-76.6082"
"Club de Caza y Pesca, Caicedonia, Valle del Cauca, Co","CAICEDONIA","5","5","4.332913","-75.82711"
"alejandria","CALI","5","5","3.539495","-76.60323"
"Finca Chambilbal, Ginebra","GINEBRA","5","5","3.729448","-76.22499"
"Parque Nacional de la Uva. La Unión Valle","LA UNIÓN","5","5","4.529622","-76.087204"
"Road And Trail Near Dona Dora, Valle del Cauca, CO (3.534, -76.752)","DAGUA","5","5","3.534018","-76.75175"
"Yerbabuena","LA CUMBRE","5","5","3.625943","-76.59269"
"Parque de la Uva","LA UNIÓN","5","5","4.529848","-76.08798"
"Estación biológica Icesi - Farallones","CALI","5","5","3.441844","-76.66267"
"Sendero, Bosque de Niebla (La Cumbre)","LA CUMBRE","5","5","3.639294","-76.552536"
"29 jun. 2020 1:57 p. m.-3,746, -76,484","VIJES","5","5","3.746338","-76.48386"
"Alto anchicaya sector Dora - Bogota Birding","DAGUA","5","5","3.533845","-76.752205"
"28 jun. 2020 8:24 a. m.-3.368, -76.597","CALI","5","5","3.367978","-76.59696"
"Alto AnchicayÃ¡--Puente","DAGUA","5","5","3.60661","-76.87972"
"Enclave Xerofitico De Dagua","DAGUA","5","5","3.66","-76.690002"
"Old Buenaventura Road: El Danubio to Agua Clara (3.6376, -76.9455)","BUENAVENTURA","5","5","3.6376","-76.9455"
"Embajada de Ginebra (Km 18)","CALI","5","5","3.507852","-76.62017"
"Vereda Villa Rosa, Finca La Hacienda, Punto de censo 5","EL CAIRO","5","5","4.825278","-76.146111"
"el vinculo","BUGA","5","5","3.825547","-76.30039"
"Cristalina","CALIMA","5","5","4.010861","-76.47628"
"Old Buenaventura road km 72 (3.591, -76.811)","DAGUA","5","5","3.591337","-76.81116"
"El Robledal","DAGUA","5","5","3.554319","-76.617096"
"Turisteando en Atuncela","DAGUA","5","5","3.73119","-76.67649"
"el pailon","EL CERRITO","5","5","3.711639","-76.07522"
"Vereda Tableros.","CALIMA","5","5","3.8568","-76.55327"
"Old Buenaventura Road -Km 55 to 90","DAGUA","5","5","3.595503","-76.78872"
"El Madrigal - Valle","CALI","5","5","3.3083","-76.5583"
"Unnamed Road, Fenicia, Valle del Cauca, CO (4,072, -76,387)","RIOFRÍO","5","5","4.072494","-76.38726"
"Chorro de Plata, La Voragine, Valle del Cauca, CO (3.344, -76.597)","CALI","5","5","3.344096","-76.59729"
"Monteloro","TULUÁ","5","5","3.971421","-76.03503"
"La ventura, Cerrito adentro, bello horizonte, Pie de monte","EL CERRITO","5","5","3.639355","-76.18108"
"Km 18/Via La Elvira, Valle del Cauca, CO (3.517, -76.621)","CALI","5","5","3.517447","-76.620834"
"El Descanso Doña Dora, Valle del Cauca, CO (3.535, -76.752)","DAGUA","5","5","3.534822","-76.75248"
"Centro Forestal Tropical UT, Bajo Calima","BUENAVENTURA","5","5","4.078597","-77.03542"
"Unnamed Road, Valle del Cauca, CO (3.631, -76.583)","LA CUMBRE","5","5","3.635863","-76.57145"
"avistamiento De Aves Doña Dora - Km 55","CALIMA","5","5","3.858614","-76.548935"
"Calle 10 3-66, Alcalá CO-Quindío 4.67683, -75.77666","ALCALÁ","5","5","4.676827","-75.77666"
"km 55 ""Doña Dora""","DAGUA","5","5","3.525843","-76.73602"
"Unnamed Road, Valle del Cauca, CO (4.815, -76.175)","EL CAIRO","5","5","4.814869","-76.17511"
"Unnamed Road, Valle del Cauca, CO (4.832, -76.184)",NULL,"5","5","4.832289","-76.18362"
"Los Andes","EL CERRITO","5","5","3.75775","-76.05906"
"El Campanario, vereda Buenos Aires, municipio San Pedro","SAN PEDRO","5","5","3.93427","-76.178635"
"Valle del Cauca Anchicaya,CO (3,594, -76,841)","DAGUA","5","5","3.593803","-76.84136"
"Cerro Azul, Trujillo, Valle del Cauca, CO (4.275, -76.282)","TRUJILLO","5","5","4.274864","-76.28218"
"Valle del Cauca, CO (3,374, -76,617)","CALI","5","5","3.374017","-76.61652"
"Valle del Cauca, CO (3,491, -76,628)","DAGUA","5","5","3.49133","-76.62814"
"13-124 Calle 3 Oeste, Cali, Valle del Cauca, CO (3.444, -76.543)","CALI","5","5","3.443917","-76.54276"
"Localidad Desconocida - 3.612x-76.895 - 5 ene. 2017 06:54","BUENAVENTURA","5","5","3.612383","-76.89503"
"Localidad desconocida - (3.848, -76.798)","DAGUA","5","5","3.848161","-76.79803"
"(3.492, -76.628)","DAGUA","5","5","3.491519","-76.62817"
"Localidad desconocida - (3,793, -76,991)","BUENAVENTURA","5","5","3.79297","-76.99095"
"Vereda El Paraiso, Finca La Delia, Punto de censo 8","ULLOA","5","5","4.731944","-75.819167"
"Vereda El Paraiso, Finca La Delia, Punto de censo 2","ULLOA","5","5","4.731944","-75.819167"
"Vereda El Paraiso, Finca La Delia, Punto de censo 15","ULLOA","5","5","4.7225","-75.820833"
"Vereda El Paraiso, Finca La Delia, Punto de censo 10","ULLOA","5","5","4.704722","-75.815"
"Vereda El Pacífico-El CAIRO","EL CAIRO","5","5","4.822042","-76.17644"
"Camino Paramo de las Dominguez","BUGA","5","5","3.760046","-76.064255"
"Laguna - De Sonso","BUGALAGRANDE","5","5","4.247303","-76.114683"
"Colombia, Valle, Dagua, Km. 18, Bosque de Niebla, Finca Alejandría ""El Paraíso de los Colibríes""","CALI","5","5","3.538807","-76.606316"
"Valle del Cauca, CO (3.613, -76.929)","BUENAVENTURA","5","5","3.612664","-76.92886"
"Colombia, Valle, Cali, Los Andes-Pichinde, Peñas Blancas","CALI","5","5","3.436283","-76.64092"
"Vereda El Descanso Buenaventura, Valle del Cauca, CO (3.535, -76.754)","DAGUA","5","5","3.534736","-76.75355"
"Dagua, Valle Del Cauca, Dagua CO-Valle Del Cauca (3.5279,-76.7155)","DAGUA","5","5","3.527903","-76.71553"
"Reserva Forestal Protectora de Amaime","EL CERRITO","5","5","3.743056","-76.05722"
"CO-Valle del Cauca-Dagua-Buenaventura - 3.534x-76.754","DAGUA","5","5","3.534298","-76.75369"
"Reserva Forestal Protectora Nacional Quebrada La Valenzuela","SAN PEDRO","5","5","4.00423","-76.16756"
"Finca La Florida , Valle del Cauca, CO (3.526, -76.616)","CALI","5","5","3.52634","-76.616165"
"760530, Darién CO-Valle Del Cauca 3.94426, -76.49135","CALIMA","5","5","3.944255","-76.49135"
"Hacienda La Arboleda","CAICEDONIA","5","5","4.352325","-75.85443"
"CO-Valle Del Cauca-Santiago De Cali","CALI","5","5","3.4901","-76.61611"
"3.5349x-76.7535 - Mar 14, 2016, 9:00 AM","DAGUA","5","5","3.534918","-76.75347"
"CO-Valle Del Cauca-Santiago de Cali - 3,5391x-76,6059 - 30/05/2016 12:55 p.m.","CALI","5","5","3.539123","-76.60587"
"(3.897, -76.179) Casa Lago.la Habana.buga Valle","BUGA","5","5","3.897097","-76.17904"
"Cali - Dagua, Valle del Cauca, CO (3.528, -76.617)","CALI","5","5","3.528253","-76.61718"
"Cascada La Milagrosa, Valle del Cauca, CO (3.877, -76.174)","BUGA","5","5","3.877473","-76.17387"
"sendero orgánico global big day","LA CUMBRE","5","5","3.625645","-76.59267"
"Chicoral-Dapa 1900-2100 mts/SNM ,valle del Cauca","LA CUMBRE","5","5","3.570261","-76.59423"
"corregimiento el saladito - familia Wagner W","CALI","5","6","3.482466","-76.605804"
"Quebrada Micos","CALIMA","5","6","3.926733","-76.676403"
"Casa Ahsraya Cali - Dagua, Valle del Cauca, CO (3.504, -76.616)","CALI","5","6","3.503708","-76.615715"
"Carretera vieja a Buenaventura Km 80-115","BUENAVENTURA","5","6","3.791548","-76.990265"
"Hacienda Formosa","ANSERMANUEVO","5","6","4.769929","-76.0822"
"Ecoparque Los Pizamos","CALI","5","6","3.438795","-76.48215"
"Acueducto","EL CAIRO","5","6","4.82677","-76.17895"
"(3,593, -76,836) Dagua Valle Anchicaya parte media.","DAGUA","5","6","3.593328","-76.83634"
"Kantu, CO-Valle Del Cauca-Santiago De Cali (3.4487,-76.6216)","CALI","5","6","3.448685","-76.62163"
"La Reina, Villacarmelo, Valle del Cauca, CO (3.385, -76.627)","CALI","5","6","3.384604","-76.62663"
"Calima, borde bosque","CALIMA","5","6","3.899743","-76.55292"
"Casa de Zinc area, SE of Sevilla","SEVILLA","5","6","4.2225","-75.8935"
"Vereda La Palmera, RN Río Bravo","CALIMA","5","6","3.905616","-76.60462"
"Laguna Sonsa","BUGA","5","6","3.850209","-76.33055"
"Unnamed Road, Darién, Valle del Cauca, CO (3.939, -76.493)","CALIMA","5","6","3.938993","-76.49258"
"(3.5887,-76.8240)","DAGUA","5","7","3.588678","-76.82404"
"Sector el Verge La Elviral, Valle del Cauca, CO (3.524, -76.59)","CALI","5","7","3.523773","-76.5895"
"Embalse Calima, Entrada 5","CALIMA","5","7","3.910513","-76.48839"
"Cabina Reserva el Paraíso","BUENAVENTURA","5","7","3.629429","-76.83442"
"Valle del Cauca, CO (3.487, -76.216)","PALMIRA","5","7","3.487151","-76.21555"
"Vereda El Cauchal","DAGUA","5","7","3.604434","-76.859985"
"Vía sin nombre, Valle del Cauca, CO (3.45, -76.619) Cajita Alta","CALI","5","7","3.45019","-76.61869"
"La pema piedras","BUENAVENTURA","5","7","3.765193","-76.93535"
"El Cairo Reserva Natural Altomira","EL CAIRO","5","7","4.713645","-76.23598"
"Vereda Jiguales","CALIMA","5","7","3.89672","-76.46108"
NULL,"GINEBRA","5","7","3.726972","-76.268992"
"Km 14 sobre el pueblo de Tenerife","EL CERRITO","5","7","3.727664","-76.078416"
"Ruta Calima Darien, Valle del Cauca, CO (3.946, -76.46)","CALIMA","5","7","3.945501","-76.45987"
"Villa Luz","DAGUA","5","7","3.546775","-76.61523"
"Sendero de las aves (Pavas)","LA CUMBRE","5","7","3.679519","-76.58774"
"Unnamed Road, Atuncela, Valle del Cauca, CO (3.736, -76.679)","DAGUA","5","7","3.736457","-76.67852"
"Reserva Ecologica Kantu","CALI","5","7","3.448626","-76.62172"
"san Cipriano","BUENAVENTURA","5","7","3.837862","-76.897446"
"Yanaconas","CALI","5","7","3.417715","-76.607185"
"Conjunto Residencial Altos de Arboleda","CALI","5","8","3.447949","-76.55046"
"San José Del Palmar Choco, CO (4,833, -76,182)",NULL,"5","8","4.833026","-76.18237"
"ecoparque del embudo","CALI","5","8","3.345168","-76.552956"
"Felida Valle del Cauca Colombia","CALI","5","8","3.4667","-76.6167"
"Río Agua Sucia, Cajambre, subiendo margen derecha frente a cerro caja","BUENAVENTURA","5","8","3.379056","-77.119597"
"Auto selected 4.71505, -75.77768 Villa Del Carmen Nature Camp","ULLOA","5","8","4.715047","-75.77768"
"Reserva Natural Nirvana, Valle del Cauca, CO (3.475, -76.19)","PRADERA","5","8","3.475276","-76.19039"
"Bajo Calima, Quebrada Ordóñez","BUENAVENTURA","5","8","4.075468","-76.96683"
"Parque Nacional De La Uva","LA UNIÓN","5","8","4.52941","-76.08687"
NULL,"JAMUNDÍ","5","8","3.25","-76.590452"
"Villacarmelo, Valle del Cauca, CO (3.383, -76.618)","CALI","5","8","3.383109","-76.618"
"Tocotá","DAGUA","5","8","3.510714","-76.647385"
"Along The Road, Valle del Cauca, CO (3.529, -76.614)","CALI","5","8","3.529283","-76.613914"
"Universidad del Valle sede Meléndez","CALI","5","8","3.37472","-76.533096"
"La Estrella - Casa de Doña Norma","BUENAVENTURA","5","8","3.971541","-77.04184"
"Road with lodges. La Paz - El 18, Cali CO-Valle del Cauca (3.5318,-76.6111)","CALI","5","8","3.531847","-76.61115"
"San Antonio, cerro de La Horqueta","DAGUA","5","9","3.483286","-76.650093"
"Parque Ecológico Miravalle","JAMUNDÍ","5","9","3.259399","-76.59385"
"Finca Angie Vanegas","CALI","5","9","3.420025","-76.60596"
"Colegio Americano","CALI","5","9","3.378472","-76.544846"
"Casa Ashraya, Refugio De Aves","CALI","5","9","3.503644","-76.617004"
"Alojamiento Campestre Mahayana","YUMBO","5","9","3.550124","-76.573586"
"Ecoparque Aguacatal, Terrón Colorado","CALI","5","9","3.461662","-76.588505"
"Topaz Colibri","LA UNIÓN","5","9","4.526856","-76.09054"
"Vereda el Vínculo, Parque Nacional Regional El Vínculo","BUGA","5","9","3.834001","-76.296872"
"Finca Sierra Morena","CAICEDONIA","5","9","4.39221","-75.81348"
"La Cruz, Darién CO-Valle Del Cauca 3.92442, -76.51221","CALIMA","5","9","3.924416","-76.512215"
"(3.3742,-76.6203)","CALI","5","10","3.37422","-76.620346"
"La Hondura","EL DOVIO","5","10","4.525747","-76.27213"
"La Choza 2","BUENAVENTURA","5","10","3.63532","-76.83664"
"Localidad desconocida - (3.758, -76.091)","EL CERRITO","5","10","3.758089","-76.09148"
"Localidad desconocida - (4.536, -76.278)","EL DOVIO","5","10","4.53606","-76.27765"
"Km 55 - old road Cali-Bonaventura","DAGUA","5","10","3.5236","-76.727"
"Mauricio Gonzales","CALI","5","10","3.487466","-76.63079"
"KM 18 Rd.","CALI","5","10","3.536026","-76.607414"
"Parque De La Uva","LA UNIÓN","5","10","4.527004","-76.09078"
"Parque Trinagular, carrera 29 con 5B (3.432, -76.54)","CALI","5","10","3.431993","-76.53982"
"Bosque De San Antonio, Valle del Cauca, CO (3.484, -76.611)","CALI","5","10","3.484335","-76.61111"
"Predio La Cabaña, vereda El Placer, Corregimiento de Montañitas","YUMBO","5","10","3.642584","-76.52324"
"Bosques La Cumbre","LA CUMBRE","5","10","3.639278","-76.55271"
"Primavera Reserve 2200m elevation","EL CAIRO","5","10","4.78432","-76.1478"
"Finca La Marina","ANSERMANUEVO","5","10","4.876396","-76.01637"
"Reserva Natural Altomira","EL CAIRO","5","10","4.728459","-76.24252"
"Reserva Natural La Argentina","EL CAIRO","5","10","4.707833","-76.21372"
"Reserva natural Río Bravo","CALIMA","5","10","3.881695","-76.56213"
"Restaurant (3.5078x-76.6201)","CALI","5","10","3.507839","-76.62012"
"Finca Esmeralda - Vereda Campo Azul","CAICEDONIA","5","10","4.254561","-75.829445"
"Finca El Renacer","JAMUNDÍ","5","10","3.108","-76.613056"
"Buitrera Cali (pueblo)","CALI","5","10","3.38268","-76.57638"
"RNM Pb (3,6308,-76,1959)","EL CERRITO","5","10","3.630752","-76.19592"
"Cali - Dagua, Valle del Cauca, CO (3,482, -76,606)","CALI","5","10","3.482411","-76.60574"
"3.5740 X -76.6199","DAGUA","5","10","3.57398","-76.61991"
"Villa Pension Dapa, Valle del Cauca, CO (3.547, -76.584)","YUMBO","5","10","3.547284","-76.58363"
"Unknown Location - (3.44, -76.664)","CALI","5","10","3.440001","-76.66383"
"El Encanto granja y hostal de montaña (3.827, -76.026)","BUGA","5","10","3.827415","-76.02641"
"Unnamed Road, Valle del Cauca, CO (3.573, -76.569)","YUMBO","5","10","3.572969","-76.56912"
"11 oct. 2020 12:12 p. m.-3.572, -76.216","PALMIRA","5","10","3.572074","-76.21631"
"Valle del Cauca, CO (4.537, -76.273)","EL DOVIO","5","10","4.537171","-76.27261"
"(3.771, -76.056)","BUGA","5","10","3.771471","-76.05562"
"(3.6207,-76.9049)","BUENAVENTURA","5","10","3.620657","-76.90492"
"Campamento minas del Socorro","CALI","5","10","3.401754","-76.683716"
"(3.5234,-76.6174)","CALI","5","10","3.523407","-76.61743"
"Vereda Pichinde, La esmeralda","CALI","5","10","3.446694","-76.631528"
"CO-Valle Del Cauca-Santiago de Cali - 3,5677x-76,6084 - 25/02/2017, 14:29 - Finca La Chacona","DAGUA","5","10","3.567664","-76.60845"
"(3,7903,-76,9879)","BUENAVENTURA","5","10","3.790303","-76.98792"
"Via a la finca Zingara, km 18","CALI","5","10","3.533653","-76.60982"
"Via Chicoral - Dapa","LA CUMBRE","5","10","3.569226","-76.577736"
"CO-Valle Del Cauca-Cali (3,5281,-76,6171)","CALI","5","10","3.527171","-76.61715"
"Vía Medio Dapa - E.L.","YUMBO","5","10","3.56138","-76.53935"
"El Porvenir","EL CAIRO","5","11","4.735059","-76.21285"
"Callejón de la Balastrera, Valle del Cauca, CO (3.594, -76.2)","PALMIRA","5","11","3.594345","-76.200325"
"Agua clara(Río,lago, carretera)","PALMIRA","5","11","3.50404","-76.23349"
"Colegio Tecnico Industrial Multiproposito--Corredor La Manga","CALI","5","11","3.411709","-76.56181"
"Predio Los Guacimos","LA VICTORIA","5","11","4.4435","-75.9299"
"Finca Los Guacimos","LA VICTORIA","5","11","4.443593","-75.93242"
"Finca La Grecia, Guaqueros, San Pedro, Valle del Cauca","SAN PEDRO","5","11","3.94938","-76.19479"
"Sendero A Las Musgueras Verdad El pato Valle del Cauca, CO (3.442, -76.673)","CALI","5","11","3.442052","-76.67276"
"Unnamed Road, Valle del Cauca, CO (3,747, -76,484)","VIJES","5","11","3.746627","-76.48382"
"Parque Nacional Natural Farallones de Cali, Alto del Buey","CALI","5","12","3.394814","-76.649242"
"Via a Montegrande, Valle del Cauca, CO (4,382, -75,809)","CAICEDONIA","5","12","4.381726","-75.809044"
"Finca Cajamarquita","BOLÍVAR","5","12","4.352097","-76.352255"
"Mirador de los vientos - Samaria Caicedonia","CAICEDONIA","5","12","4.270291","-75.875374"
"Alto Anchicayá - Carros Viejos","DAGUA","5","12","3.526537","-76.73409"
"casa Villa Eugenia, Cali, Valle del Cauca, CO (3,444, -76,555)","CALI","5","12","3.443989","-76.5552"
"100A-138 Calle 16, Cali, Valle del Cauca, CO (3,366, -76,531)","CALI","5","13","3.365534","-76.53105"
"Colombia - Valle del Cauca","DAGUA","5","13","3.533002","-76.878876"
"1-60 Carrera 54, Cali, Valle del Cauca, CO (3.412, -76.554)","CALI","5","13","3.41204","-76.55386"
"(3.8862,-76.1369)","BUGA","5","13","3.88619","-76.13692"
"Cooperativa Lomalarga, núcleo C, Valle del Cauca, CO (3,312, -76,575)","CALI","5","13","3.312101","-76.57476"
"San Antonio cloud forest","CALI","5","14","3.488616","-76.62712"
"El Otoño (3.369, -76.609)","CALI","5","14","3.368704","-76.60851"
"PN de Las Hermosas","PALMIRA","5","14","3.711392","-75.96927"
"Parque Puente Cr 49 Calle 10","CALI","5","14","3.412078","-76.537575"
"Condominio Las Mercedes","JAMUNDÍ","5","14","3.260749","-76.566895"
"Valle del Cauca, CO (3.625, -76.548)","YUMBO","5","15","3.624997","-76.54834"
"El Zafiro","EL CAIRO","5","15","4.76375","-76.194725"
"Tamauka Trujillo Valle del Cauca, CO (4.226, -76.345)","TRUJILLO","5","15","4.22566","-76.34474"
"conjunto residencial Mont Bre","CALI","5","15","3.443085","-76.55421"
"Cali - Dagua, Valle del Cauca, CO (3,528, -76,617)","CALI","5","15","3.528432","-76.61717"
"Barrio Libertadores-Cali","CALI","5","15","3.441298","-76.54233"
NULL,"LA UNIÓN","5","15","4.52615","-76.098752"
"Valle del Cauca, CO (3.628, -76.166) Apiario A Puerta Bello Horizonte Madhú","EL CERRITO","5","15","3.627746","-76.16552"
"4.81x-76.172 - Oct 11, 2016 10:56","EL CAIRO","5","15","4.810464","-76.17192"
"760528, Dagua CO-Valle Del Cauca 3.73256, -76.67687","DAGUA","5","15","3.732561","-76.67687"
"Vía Buenos Aires, Valle del Cauca,","SAN PEDRO","5","15","3.929703","-76.173805"
"La Felicidad","BUGA","5","16","3.906476","-76.20677"
"La Primavera","BUGA","5","16","3.90615","-76.21186"
"Reserva Forestal La Cumbre (Sector Cabaña)","LA CUMBRE","5","16","3.637806","-76.57141"
"Vereda LA GALANA, predio LA GALANA","EL ÁGUILA","5","16","4.891417","-76.023139"
"Valle del Cauca, CO (3,884, -76,439) Hotel Mirador De Calima","YOTOCO","5","16","3.883611","-76.43928"
"Auto selected 3.52195, -76.52695","YUMBO","5","17","3.521949","-76.52695"
"CO-Valle Del Cauca-Buenaventura (3.7850,-76.9866)","BUENAVENTURA","5","17","3.784974","-76.98661"
"Valle del Cauca, CO (3.613, -76.888)","BUENAVENTURA","5","18","3.612702","-76.88833"
"Edificio Monterosso","CALI","5","18","3.358272","-76.53502"
"Parque Nacional de la Uva, Valle del Cauca","LA UNIÓN","5","18","4.529731","-76.087364"
"Unnamed Road, Valle del Cauca, CO (3.627, -76.544)","YUMBO","5","19","3.627271","-76.54374"
"Barrio Pasoancho a balneario La Paya","LA UNIÓN","5","19","4.530112","-76.13494"
"Puente Los Patos","PALMIRA","5","19","3.613912","-76.12454"
"Valle del Cauca, CO (3.633, -76.942)","BUENAVENTURA","5","19","3.6327","-76.94187"
"Galicia","BUGALAGRANDE","5","20","4.16026","-76.058806"
"Parque de la Uva. CO-Valle del Cauca-La Unión-La Victoria-La Unión - 4.53x-76.088","LA UNIÓN","5","20","4.529577","-76.08762"
"Alrededores aeropuerto de Buenaventura","BUENAVENTURA","5","20","3.82059","-76.99999"
"Colombia, Valle, Cali (Lili)","CALI","5","21","3.364311","-76.511566"
"Vía Antigua A Buenaventura De Aguaclara A Chorrera","BUENAVENTURA","5","21","3.643303","-76.9421"
"Finca La Dicha","LA CUMBRE","5","21","3.59586","-76.61025"
"Conjunto residencial Mont Bre","CALI","5","22","3.443363","-76.55413"
"Vereda Chicoral, Corregimiento de Bitaco, Finca Montebello","LA CUMBRE","5","22","3.565833","-76.588611"
"La Chorrera - waterfall falling on the road below El Danubio (43km below Queremal) - 468m - 3.6232x-76.9285 - Feb 14, 2017, 12:56","BUENAVENTURA","5","23","3.623225","-76.92852"
"Lago Palermo, Caicedonia, Valle del Cauca, CO (4,391, -75,866)","SEVILLA","5","23","4.39084","-75.86592"
"Entrada 3 Parque De La Salud, Pance, Valle del Cauca, CO (3.346, -76.572)","CALI","5","25","3.346065","-76.57163"
"Antigua Via A Buenaventura, Valle del Cauca, CO (3,529, -76,744)","DAGUA","5","25","3.52856","-76.74358"
"Yumbillo","YUMBO","5","26","3.586494","-76.5592"
"Javeriana Cali","CALI","5","26","3.348575","-76.5325"
"RN Loma Larga (3.316, -76.578)","CALI","5","26","3.316293","-76.57794"
"Búnker de Cerro Mosquito (ANC)","BUENAVENTURA","5","27","3.575719","-76.877785"
"FODUN Tablones, CO-Valle Del Cauca 3.59691, -76.20137","PALMIRA","5","27","3.596914","-76.20137"
"Universidad Icesi","CALI","5","27","3.34166","-76.53063"
"31 - Reserva Madhu, Valle del Cauca, CO (3.588, -76.207)","PALMIRA","5","28","3.587624","-76.20681"
"condominio campestre senderos de verde horizonte","JAMUNDÍ","5","29","3.274438","-76.5874"
"PNN Uramba-Bahia Malaga. Sector Miramar","BUENAVENTURA","5","30","3.988318","-77.24662"
"Rufous-crowned antpitta","BUENAVENTURA","5","30","3.571498","-76.88069"
"Vereda Puerta Negra, Restrepo, Valle del Cauca","CALIMA","5","30","3.853654","-76.57332"
"Apto MontBre en Bellavista","CALI","5","31","3.442922","-76.55404"
"5 Camino a las Colinas, Valle del Cauca, CO (3.372, -76.566)","CALI","5","32","3.372353","-76.56622"
"Callejón Tabares, Valle del Cauca, CO (3.38, -76.574)","CALI","5","34","3.380018","-76.573906"
"Scarlet-thighed Dacnis","BUENAVENTURA","5","37","3.575719","-76.877785"
"Quebrada La Loca (ANC)","BUENAVENTURA","5","41","3.571498","-76.88069"
"DRMI RUT Nativos, Vereda La Chica","TORO","5","49","4.584083","-76.118667"
"Humedal Parcelación La Riverita","CALI","5","49","3.359268","-76.55738"
