"locality","species_richness","gbif_records","latitude","longitude"
NULL,"57","1056","3.25","-77.264046"
"Alto Anchicayá - El Descanso (Doña Dora)","44","15318","3.53471","-76.75358"
"Finca Alejandría ""El Paraiso de Los Colibries""","41","13135","3.539459","-76.60638"
"Bosque de San Antonio (Cerro de la Horqueta)","40","3588","3.489853","-76.6269"
"Alto Anchicayá","38","967","3.534556","-76.87815"
"Carreterra Buenaventura--Km 48-60","38","1095","3.525015","-76.740906"
"La Florida - Bosque de Las Aves","37","8096","3.528089","-76.61703"
"RN Rio Bravo--Entrada","36","1236","3.881944","-76.562416"
"Bosque de Niebla Km. 18","36","5521","3.532399","-76.61221"
"Reserva Natural Comunitaria Cerro El Inglés","35","636","4.741488","-76.296005"
"Via Antigua a Buenaventura","35","2177","3.608735","-76.8846"
"Vereda Chicoral","35","2734","3.574758","-76.58129"
"RN Rio Bravo--Carretera","34","2295","3.888061","-76.6017"
"RN Madhú","33","1165","3.628431","-76.16426"
"Finca La Araucana","33","3599","3.56699","-76.67878"
"Ecolodge La Minga (acceso restringido)","33","6166","3.56647","-76.58538"
"Parque Natural Nacional - Ucumarí","31","31","4.679711","-75.8333"
"Finca La Conchita","30","2545","3.528202","-76.61335"
"RN El Danubio","29","1025","3.408498","-76.64959"
"Finca Bosque de Niebla","29","7231","3.530235","-76.61285"
"RN Forestal Bosque de Yotoco","28","469","3.86873","-76.4311"
"Mirador de Tenerife","28","780","3.741875","-76.07874"
"Bajo Anchicayá - Ladrilleros","28","780","3.61792","-76.91308"
"RNSC San Felipe","28","1117","3.51858","-76.61845"
"Mirador Verdeplata","27","217","3.430371","-76.65804"
"RN Nirvana","27","477","3.476034","-76.190186"
"Alto Anchicayá - Quebrada Los Caleños","26","261","3.565273","-76.75777"
"Alto Anchicayá - El Danubio","26","305","3.606614","-76.87972"
"PNN Farallones de Cali--Cañon del Pato","26","422","3.326644","-76.656075"
"RN San Cipriano-Escalerete","26","2742","3.829627","-76.89197"
"PNN Farallones de Cali--Queremal","25","80","3.500851","-76.72146"
"Mirador Barlovento","25","240","3.46532","-76.18603"
"Carretera Vieja Buenaventura--Km 60-76","25","310","3.616087","-76.88397"
"PNN Farallones de Cali--Yatacue","25","461","3.574714","-76.87943"
"Balcón de los Colibríes","25","1123","3.326917","-76.621185"
"PNN Farallones de Cali--Camino a Pico Pance","24","59","3.332258","-76.664055"
"Pichindé (corregimiento)","24","118","3.433511","-76.61456"
"ZYGIA, Estación Biológica ICESI","24","148","3.442223","-76.66347"
"Via Dapa-Chicoral (El Filo)","24","350","3.569901","-76.57603"
"Paso Galapagos--Camino Galapagos","24","384","4.83131","-76.18102"
"Reserva Forestal Natural del Río Guadalajara de Buga","24","417","3.875481","-76.17392"
"PNN Tatamá--Águila Valle","23","31","4.952013","-76.08284"
"km 18","23","109","3.518147","-76.62"
"PNN Farallones de Cali--El Topacio a Pico de Loro","23","171","3.315044","-76.63857"
"Centro de Educación Ambiental La Teresita","23","302","3.449194","-76.66126"
"Hacienda Los Morales, Dapa","23","567","3.579831","-76.5721"
"Hacienda El Paraíso","23","605","3.641108","-76.492004"
"Finca Debusale","23","816","3.560504","-76.57638"
"Santa Lucia, Casa El Establo","22","43","3.535672","-76.6089"
"Finca La Aurora","22","130","3.32237","-76.623375"
"El Nilo","22","131","3.325811","-76.62851"
"Finca Manzanares","22","272","3.454752","-76.664406"
"PNN Farallones de Cali--Centro de Educación Ambiental El Topacio","22","326","3.317668","-76.63733"
"Km 55 'El Descanso' 'Doña Dora'","22","388","3.53493","-76.75348"
"Parque Natural Nacional - Los Farallones De Cali","21","21","3.521227","-76.585798"
"Ruta Nacional 19 1–83, Cali CO-Valle Del Cauca (3.5479,-76.6124)","21","21","3.547859","-76.6124"
"Straße 19, Umgebung von Kilometro Diez y Ocho","21","26","3.537237","-76.616982"
"PNR Nima","21","72","3.518333","-76.111667"
"Finca Alejandría","21","86","3.517454","-76.62097"
"Chicoral","21","88","3.56929","-76.58681"
"RN Comunitaria Galapagos","21","230","4.826362","-76.17891"
"Pico de Águila","21","235","3.314502","-76.60197"
"San Antonio VdelC","21","263","3.491349","-76.61801"
"Finca Villa Cielo","21","423","3.330906","-76.635544"
"PNN Farallones de Cali--El Topacio","21","446","3.323045","-76.633804"
"Recinto de Los Sueños","21","556","3.569693","-76.58859"
"Ecohotel El Diamante","21","976","3.893535","-76.22399"
"La Florida el bosque de las aves","20","20","3.526289","-76.616753"
"beiderseits der Straße El Queremal bis Dona Dora -km 55","20","28","3.527899","-76.741348"
"Hacienda Tokio--Antigua Antena Telecom","20","78","3.484265","-76.72657"
"Kilómetro 18","20","79","3.452013","-76.617386"
"Barragan","20","141","4.006225","-75.9044"
"Bajo Anchicayá--Zona de Cascada","20","154","3.625984","-76.94296"
"Finca Loma Linda","20","157","3.567943","-76.608505"
"Restaurante La Embajada de Ginebra","20","161","3.507658","-76.62016"
"El 18","20","179","3.517601","-76.62023"
"Bichacue Yath Arte y Naturaleza","20","190","3.454595","-76.634544"
"La Cabaña de Chicoral (acceso restringido)","20","231","3.568213","-76.5855"
"Villa de Aurora (Acceso Restringido)","20","252","3.54391","-76.580795"
"Alto Dapa--Arroyohondito","20","265","3.555287","-76.57913"
"Reserva Privada El Paraíso (acceso restringido)","20","285","3.63442","-76.83559"
"RN Aguaclara","20","318","3.67014","-76.94476"
"Alto San Luis","20","402","3.478467","-76.652985"
"Finca Alejandría Km 18","19","19","3.539353","-76.60545"
"Km 18 Via Cali - Buenaventura","19","19","3.564963","-76.756243"
"Avistamiento de Aves Doña Dora","19","33","3.532539","-76.75348"
"Reserva Natural Madhú, Las Brisas","19","81","3.631589","-76.15499"
"Hacienda Los Morales","19","102","3.57902","-76.570755"
"Vereda El pato, Valle del Cauca, CO (3,327, -76,644)","19","106","3.327496","-76.64419"
"Represa Alto Anchicayá","19","113","3.534821","-76.867645"
"PNN Farallones de Cali--La Esmeralda-Pichindé","19","121","3.443862","-76.62638"
"Villa de Aurora, Dapa","19","133","3.54385","-76.58086"
"Sendero Ecológico Aguas Lindas","19","135","4.56904","-76.211876"
"Río Cali","19","138","3.451168","-76.66905"
"Robert Oelman's","19","147","3.56285","-76.60413"
"Km 18","19","153","3.51743","-76.65118"
"Vereda Alaska","19","173","3.891519","-76.18238"
"Finca La Esmeralda CO-Valle Del Cauca-Santiago De Cali - 3.4439x-76.6265","19","310","3.443945","-76.62656"
"Anchicayá Nature Camp","19","564","3.575717","-76.879555"
"Ecolodge La Minga","18","18","3.566374","-76.58527"
"Vereda Río Bravo","18","23","3.941417","-76.56303"
"Bosque Finca Alejandria Km. 18","18","37","3.540228","-76.60424"
"Reserva Natural Mi Universo","18","47","3.536509","-76.60704"
"Parque Nacional Natural Farallones de Cali","18","47","3.337594","-76.64689"
"Vereda El Diamante","18","51","3.457618","-76.663185"
"Residencia de Mazariegos (acceso restringido)","18","52","3.654701","-76.685"
"Reserva Natural Bachué - Fundación Farallones","18","105","3.330756","-76.65393"
"Finca Florida El Bosque De Las Aves Kilómetro 18 Vía Al Mar","18","120","3.527865","-76.6168"
"El Descanso","18","132","3.51542","-76.75357"
"Finca Lolita","18","172","3.498043","-76.627945"
"Carretera Vieja Buenaventura--Km 80-115","18","217","3.716829","-76.974945"
"ICESI Station (restricted access)- Parque Nacional Natural Farallones de Cali","18","243","3.441021","-76.66275"
"National Park Natural Farallones De Cali, Santiago De Cali CO-Valle Del Cauca (3.4419,-76.6628)","18","271","3.441874","-76.66279"
"Microcuenca Quebrada Pericos","18","285","3.84864","-76.78737"
"El Nido del Bosque","18","316","3.528737","-76.61609"
"Central hidroelecrica alto anchicaya","18","748","3.54127","-76.895633"
"Cerro El Trueno","17","17","3.33202","-76.62488"
"Vía sin nombre, Valle del Cauca, CO (3,496, -76,578)","17","17","3.49562","-76.577644"
"Balcon de los colibries","17","17","3.326914","-76.621185"
"San José del Salado","17","25","3.564338","-76.723922"
"Finca La Florida","17","29","3.521615","-76.6174"
"Vereda Buenos Aires","17","29","3.88183","-76.588583"
"Peñas blancas","17","30","3.430791","-76.627266"
"Vereda San Pablo Km 18","17","33","3.513062","-76.62281"
"Unnamed Road, Valle del Cauca, CO (3.539, -76.606)","17","43","3.539247","-76.60606"
"Km18 ,S.","17","45","3.541597","-76.60293"
"La Minga","17","45","3.566485","-76.58537"
"Reserva Forestal del Pacífico","17","56","3.537858","-76.62163"
"La Minga Eco-Lodge","17","73","3.566402","-76.58528"
"Alto Pance","17","81","3.333961","-76.56079"
"Cantar del Bosque","17","84","3.539421","-76.604"
"Reserva Forestal del Río Bitaco","17","85","3.569236","-76.57944"
"Vereda Alejandría","17","117","3.767898","-76.06012"
"Colombia","17","154","3.4493","-76.9301"
"Comederos de Doña Dora (3.5346,-76.7535)","17","216","3.534586","-76.75353"
"Casa Blanca Buga Alaska Al Rural","17","395","3.894965","-76.18042"
"Finca Florida-El Bosque de las aves","16","16","3.526207","-76.616585"
"finca bosque de niebla","16","16","3.530065","-76.61252"
"Valle del Cauca, CO (3,539, -76,607)","16","16","3.539372","-76.60677"
"Peñas Blancas","16","23","3.425138","-76.65821"
"Cerro de Peñas Blancas","16","25","3.43216","-76.66904"
"La Cabana","16","28","3.504183","-76.61948"
"La minga chicoral","16","30","3.566313","-76.58528"
"Km 52 Alto Pisones spot.","16","31","3.52785","-76.74062"
"Farallones de cali","16","32","3.344168","-76.69583"
"Sector La Holanda","16","44","3.929717","-76.564583"
"PNN Farallones de Cali--Sendero Río San Juan","16","45","3.476692","-76.71361"
"Alto Dapa","16","50","3.56013","-76.57625"
"Río Verde","16","51","3.53279","-76.83259"
"Finca La Esmeralda CO-Valle Del Cauca-Santiago De Cali - 3.4439x-76.6265 - Mar 18, 2017, 3:24 PM","16","67","3.443938","-76.62655"
"El Queremal - El Descanso","16","71","3.526614","-76.73388"
"Doña Dora","16","73","3.534572","-76.75406"
"Finca Arco Iris","16","75","3.561937","-76.63897"
"Finca Alejandria","16","79","3.529142","-76.60631"
"Tenerife","16","87","3.729008","-76.07739"
"RN Bonanza","16","88","3.257278","-76.6556"
"Los Andes","16","100","3.41675","-76.633415"
"Shangri-La","16","115","3.306251","-76.60078"
"RN Anahuac Pance","16","116","3.327929","-76.64423"
"Balneario Valparaiso","16","124","3.848688","-76.79649"
"Alto Potedó","16","194","3.789756","-76.9887"
"Reserva Forestal Protectora de Bitaco, finca la Minga","16","291","3.33847","-76.658538"
"Finca Miramanga--Casa Tángara (histórico)","16","954","3.56039","-76.56641"
"RN Laguna de Sonso","16","1779","3.86867","-76.35217"
"Vía sin nombre, Valle del Cauca, CO (3.538, -76.606)","15","15","3.537614","-76.6064"
"3.528x-76.613 Finca La Conchita - 9 mar. 2018 6:20 PM","15","15","3.527911","-76.613304"
"Km 18 y Finca Alejandría","15","15","3.537837","-76.60857"
"Monitoreo Calima","15","17","3.882657","-76.56115"
"Bosque de Niebla und San Antonia Cloud Forest","15","21","3.497701","-76.627296"
"Finca la florida","15","21","3.52699","-76.614784"
"Finca Florida -Bosque de las aves","15","23","3.526202","-76.616585"
"Road west out of Cali","15","24","3.526509","-76.73311"
"Bajo Calima","15","26","3.875176","-76.99617"
"Auto selected 3.57268, -76.55215","15","27","3.57268","-76.55215"
"Corregimiento Río Bravo, La Betania","15","27","3.87818","-76.58706"
"Valle Bonito","15","28","3.77536","-76.014534"
"DCS Cañón del Río Grande, Vereda Roman","15","29","3.753361","-76.579639"
"Corregimiento Bitaco, vereda Chicoral, cuenca alta del río Bitaco","15","31","3.558333","-76.588722"
"Km18, Santiago De Cali CO-Valle Del Cauca (3.5361,-76.6057) 1.970msnm","15","38","3.53609","-76.60568"
"KM-18 - (3.523, -76.617)","15","38","3.523314","-76.61729"
"PNN Farallones de Cali--Los Balcones","15","48","3.3293","-76.69526"
"Páramo de Las Dominguez","15","49","3.696013","-76.12281"
"RFPR Bitaco","15","55","3.559667","-76.599778"
"ZYGIA, Estación Biológica ICESi","15","60","3.442429","-76.66375"
"Vereda El Pato, sitio El Pato","15","66","3.330556","-76.654028"
"Finca La Florida El Bosque De las aves Kilómetro 18 Vía Al Mar","15","68","3.528249","-76.61718"
"Parque Natural Regional Páramo del Duende--Centro de Investigación Corporación Autónoma Regional del Valle del Cauca","15","69","4.049015","-76.45744"
"Queremal (pueblo)","15","70","3.523643","-76.71216"
"San Jose del Salado (area general)","15","77","3.557338","-76.73443"
"Paso Galapagos","15","82","4.812912","-76.185064"
"Km 55/El Descanso","15","100","3.53493","-76.75306"
"Finca El Pailon","15","190","3.699026","-76.07007"
"Distrito de Manejo Integrado de Atuncela--Enclave Subxerofitico","15","329","3.741693","-76.67978"
"Curigua Ecolodg Buga","15","340","3.876524","-76.172745"
"Sendero Orgánico","15","548","3.631122","-76.58267"
"Finca La Victoria","14","14","3.264111","-76.69161"
"Alto dapa Nidito de amor","14","14","3.558594","-76.55644"
"Colombia - Bosque de Niebla","14","14","3.530235","-76.61285"
"Colombia@3.54,-76.61","14","14","3.539424","-76.60606"
"Finca La Minga, Chicoral","14","14","3.566374","-76.58527"
"Kilometro 18, Via Cali-Buenaventura","14","14","3.525329","-76.61702"
"Vereda la Debora","14","16","3.659047","-76.57484"
"La Elvira","14","20","3.50226","-76.598915"
"PNN Farallones de Cali--Rio Felidia","14","20","3.458889","-76.63611"
"Chorrera del Indio","14","20","3.332042","-76.61389"
"Vereda La Cristalina, Finca El Tesoro","14","24","4.00389","-76.48636"
"Valle del Cauca, CO (3.426, -76.654)","14","26","3.426251","-76.65374"
"RN Refugio Corazones Verdes","14","31","3.579755","-76.54839"
"La Italia","14","32","3.983764","-75.939964"
"Finca Montebello","14","32","3.566902","-76.58497"
"Restaurante Aquí Me Quedo","14","40","3.53109","-76.619965"
"Condominio Cerro Morales","14","42","3.578527","-76.56996"
"Vía Buenos Aires, Valle del Cauca, CO (3.919, -76.186)","14","42","3.91869","-76.18618"
"Reserva Natural Altamira","14","43","4.778695","-76.221664"
"Km 18, Vía Cali - Buenaventura","14","49","3.526209","-76.61681"
"Rio Bravo","14","52","3.880881","-76.619446"
"Via a La Minga, vereda Chicoral, municipio La Cumbre","14","55","3.568847","-76.578766"
"Finca Florida","14","55","3.52742","-76.61724"
"CO-Valle Del Cauca-Santiago De Cali (3.5182,-76.6199)","14","56","3.518165","-76.61987"
"El Rocío Ecolodge","14","56","3.33717","-76.594406"
"Ecohotel Casa Blanca","14","64","3.894869","-76.17971"
"Guabas","14","79","3.7313","-76.2254"
"Finca La Esmeralda CO-Valle Del Cauca-Santiago De Cali - 3.4439x-76.6265 - Feb 26, 2017, 9:59 AM","14","82","3.443941","-76.62646"
"Nido del Bosque, Cali CO-Valle Del Cauca 3.52868, -76.61611","14","82","3.528677","-76.61611"
"Finca Zingara (3.54, -76.605)","14","90","3.539723","-76.60456"
"Río Tatabro","14","94","3.802595","-76.9891"
"Casa Ashraya Refugio De Las Aves","14","113","3.503283","-76.61741"
"Balneario La Delfina","14","195","3.82311","-76.78157"
"Reserva De La Sociedad Civil Chorro De Plata","14","199","3.347959","-76.597336"
"Yumbo, Dapa, Calle del Riachuelo, Casa 'La Elisa'","14","218","3.5578","-76.57321"
"Reserva Santelina","14","220","3.847696","-76.183"
"Reserva La Primavera Yotoco","14","326","3.982496","-76.390045"
"Finca San José de la Montaña","14","499","3.504529","-76.62066"
"Cali - Dagua, Valle del Cauca, CO (3.519, -76.62)","13","13","3.518867","-76.619835"
"卡利, Valle Del Cauca, 卡利 CO-Valle Del Cauca (3.5393,-76.6060)","13","13","3.539294","-76.60595"
"Area around km18","13","13","3.532923","-76.610916"
"Finca Alejandría -El Porvenir","13","13","3.539635","-76.60638"
"3.56633_-76.58530","13","13","3.56633","-76.5853"
"Doña Dora Feeders to Rio Blanco","13","13","3.590109","-76.832115"
"Reserva Forestal De Yotoco","13","13","3.869999","-76.389999"
"La Araucaria","13","13","3.326943","-76.62103"
"3.5242x-76.7268 - Dec 5, 2016, 6:04 AM","13","13","3.524201","-76.72677"
"Valle del Cauca, CO (3.333, -76.633)alto pance FINCA VILLA CIELO","13","13","3.332914","-76.633156"
"CO-Valle del Cauca-Dagua-Buenaventura - 3.527x-76.721","13","13","3.526661","-76.720726"
"CO-Valle Del Cauca-Cali (3,5606,-76,5760)","13","13","3.560627","-76.576035"
"Villa de Aurora Eco Lodge-Dapa.","13","15","3.544043","-76.58095"
"Zingara","13","16","3.5","-76.61694"
"Via Potrerillo - La nevera, Valle del Cauca, CO (3,546, -76,133)","13","17","3.546026","-76.13321"
"Doña Dora El Descanso EHG, Valle del Cauca, CO (3,535, -76,754)","13","17","3.534747","-76.75355"
"CO-Valle del Cauca-Finca Alejandria Road - 3.539x-76.606 - 22 jul. 2017 11:34 AM","13","18","3.5392","-76.60612"
"Vereda El pato, Valle del Cauca, CO (3.327, -76.644)","13","19","3.327451","-76.64416"
"Barragán arriba","13","20","3.993","-75.925"
"RN Valle de Frailejones","13","23","4.06175","-75.7595"
"Carretera La Primavera El Darién","13","23","3.95637","-76.43754"
"Cerro del Inglés","13","25","4.741672","-76.29466"
"Seleccionado automáticamente","13","25","3.12359","-76.56345"
"3,5208 X -76,6183","13","26","3.52082","-76.6183"
"Valle del Cauca, CO (3.57, -76.582)","13","26","3.569956","-76.58247"
"Finca Zingara","13","29","3.527778","-76.62111"
"Nido del Bosque (formerly Lomazul Ecolodge)","13","33","3.528543","-76.616035"
"La Minga Ecolodge","13","40","3.566454","-76.585236"
"Colombia Valle del Cauca, Doña Dora","13","41","3.53308","-76.75377"
"Singara Km 18","13","41","3.5399","-76.6045"
"tenerife","13","44","3.720289","-76.07393"
"Carreterra Buenaventura--Senda El Barrion","13","57","3.518713","-76.71831"
"Reserva Natural Nirvana","13","62","3.471271","-76.21203"
"Rio Bravo Valle del Cauca, CO (3,879, -76,56)","13","64","3.87943","-76.56044"
"Colombia - Valle del Cauca","13","71","3.527137","-76.878876"
"Anchicaya-- Carretera Queremal-Sabaletas","13","72","3.662816","-76.87271"
"""Cuenca río Bugalagrande, vereda Miraflores, finca la Traviata""","13","78","3.983944","-75.808972"
"Embalse Calima","13","84","3.877442","-76.557884"
"Reserva Natural la Tierra Nuestra Buga","13","100","3.884514","-76.13739"
"Finca Enebros Km 8 Dapa","13","150","3.556705","-76.5514"
"Universidad Javeriana Cali","13","300","3.346396","-76.53306"
"Lee Calvert's Cali Finca","12","12","3.434","-76.616"
"Bosque Aracataca. Vereda Triana","12","12","3.8256","-76.5263"
"Via hacia Sevilla","12","12","4.090216","-75.841545"
"Bosque Las Brisas - Argelia Valle","12","12","3.605","-76.4314"
"Aua","12","12","3.91372","-76.117256"
"Cali: Straße 19 km 18, Finca Alejandria ""El Paraiso de los Colidrie""","12","12","3.539678","-76.606293"
"atuncela","12","12","3.737762","-76.674225"
"Vía a Borrero Ayerbe, Dagua CO-Valle Del Cauca 3.53106, -76.62011","12","12","3.531055","-76.62011"
"(3,539, -76,606)","12","12","3.539299","-76.60589"
"Central Hidroelectrica Bajo Anchocaya","12","12","3.61399","-76.90857"
"CO-Valle Del Cauca-Santiago De Cali (3.5393,-76.6061)2019 agosto con Gil","12","12","3.539346","-76.60609"
"Finca Buenos Aires - Vereda El Retiro","12","12","4.786707","-76.199425"
"Finca la conchita","12","12","3.527149","-76.613205"
"Finca la Florida","12","12","3.528226","-76.61332"
"Kilometro 18","12","12","3.538349","-76.61658"
"Peñas Blancas (casa Oswaldo)","12","12","3.430673","-76.6626"
"La conchita","12","12","3.528286","-76.613396"
"La Lolita, El Saladito, Cali","12","12","3.489003","-76.616806"
"Finca Alejandría paraíso de los colibríes","12","14","3.539621","-76.60499"
"Galapagos Road","12","19","4.832723","-76.17231"
"Buenaventura, Valle del Cauca, CO (3.526, -76.734)","12","22","3.526026","-76.733574"
"Sendero La Castellana","12","24","3.333891","-76.64015"
"Dona Dora el descanso","12","24","3.522401","-76.7185"
"Finca La Alborada (acceso restringido)","12","24","3.535917","-76.61494"
"Buenaventura, Valle del Cauca, CO (3.54, -76.757)","12","24","3.539575","-76.75662"
"Robert Oelman's yard","12","24","3.503431","-76.619316"
"Finca Betania","12","25","3.584215","-76.17204"
"La Choza","12","28","3.6294","-76.83446"
"vereda Chicoral","12","28","3.566399","-76.5849"
"Finca Tupambaé","12","35","3.573176","-76.61309"
"Peñas Blancas- 3.402x-76.683 - may 13, 2017 19:18","12","37","3.402158","-76.683395"
"Cali","12","41","3.363788","-76.55308"
"Alto Río Sabaletas","12","42","3.750673","-76.94851"
"4 km NW San Antonio","12","43","3.25","-76.583333"
"Valle del Cauca, CO (3.611, -76.894)","12","46","3.610737","-76.89438"
"Doña Dora / El Descanso (3.5347,-76.7535) 1.272 masl","12","46","3.534719","-76.75352"
"Reserva Natural Cantalia","12","53","3.761103","-76.20411"
"Hábitats BSA Bosque San Antonio, Valle del Cauca, CO (3.512, -76.599)","12","53","3.512245","-76.599045"
"Fundación Agroambiental Monterrey","12","60","3.579109","-76.59916"
"Reserva Natural de las Aves Las Bangsias","12","63","3.624133","-76.81624"
"El Cominal","12","66","3.349942","-76.64736"
"""Cuenca río Amaime, vereda la Nevera, finca la Victoria""","12","68","3.535","-76.078583"
"Restaurante Aquí Me Quedo - Vía a Borrero Ayerbe, Dagua CO-Valle del Cauca (3.5312,-76.6201)","12","71","3.531211","-76.620125"
"Valle del Cauca, CO (3,47, -76,199)","12","96","3.469806","-76.19872"
"Brisas","12","97","4.76531","-76.13779"
"Ruta Nacional 19 1–83, Santiago De Cali CO-Valle Del Cauca (3.5311,-76.6201) Restaurant “Aquí me Quedo”.","12","99","3.5311","-76.62005"
"Vereda Calimita - Restrepo","12","111","3.829767","-76.53381"
"Chorro de Plata","12","120","3.33834","-76.602776"
"Hacienda Guadalajara","12","155","3.471882","-76.203316"
"Parque Natural Regional El Vínculo","12","201","3.825656","-76.2978"
"Vereda Chicoral, La Cumbre, Valle del Cauca","11","11","3.575957","-76.58129"
"Finca Florida - El Bosque de las Aves","11","11","3.526207","-76.616585"
"Parque Natural Regional Páramo del Duende","11","11","4.045833","-76.4475"
"Finca Alexandria","11","11","3.539553","-76.606415"
"Estadero Doña Dora, El Descanso.","11","11","3.534963","-76.752914"
"El Manantial","11","11","3.324823","-76.63097"
"Travel - Cali to Dagua","11","11","3.562233","-76.61123"
"Unnamed Road, Valle del Cauca, CO (3.326, -76.621)","11","11","3.32634","-76.62073"
"Darien, Lago Calima North Side","11","11","3.920035","-76.499504"
"Unnamed Road, Valle del Cauca, CO (3.566, -76.586)la minga ecolodge","11","11","3.566195","-76.58553"
"Alto Calima","11","11","3.939239","-76.515076"
"Chicoral-Valle del Cauca","11","11","3.574651","-76.581024"
"Vereda Chicoral, La Cumbre","11","11","3.566864","-76.58362"
"Cali: Straße 19 km 18, Old Buenaventura Road","11","11","3.588978","-76.674103"
"Bosques De Alejandría","11","11","3.539248","-76.606705"
"Bosque San Antonio, Cali","11","11","3.495669","-76.62473"
"La Paz - El 18, Cali CO-Valle del Cauca 3.52796, -76.61683","11","12","3.527956","-76.61683"
"Anchicaya Valley","11","13","3.543217","-76.931694"
"""Atuncela, camino destapado""","11","15","3.749944","-76.677056"
"La Cumbre, Valle del Cauca, CO","11","16","3.648079","-76.56691"
"Finca Alejandría ""El Paraiso de los Colibries""","11","16","3.538757","-76.60631"
"RN La Palma","11","17","3.714465","-76.090324"
"Finca Chucho","11","18","3.492346","-76.617836"
"Reserva El Porvenir","11","18","3.518627","-76.614685"
"CO-Valle Del Cauca-Santiago de Cali - 3,5550x-76,5792 - 23/04/2016 9:38 a.m. Finca campirana","11","19","3.555029","-76.57923"
"Km 27","11","21","3.597773","-76.64543"
"La Paz - Nido del Bosque - El 18, Cali CO-Valle Del Cauca 3.52784, -76.61616","11","22","3.527836","-76.616165"
"CO-Valle Del Cauca-Yumbo (3,5728,-76,5523)","11","22","3.572792","-76.55225"
"Los Ceibos-Tenerife, Valle del Cauca, CO (3.677, -76.076)","11","22","3.676596","-76.07592"
"La Cascada - Anchicaya","11","24","3.622139","-76.92996"
"Finca Tangara - Los Laureles- Valle del Cauca","11","24","3.509199","-76.609535"
"CO-Valle Del Cauca-Santiago De Cali (3.4907,-76.6192)","11","27","3.490673","-76.61925"
"Danubio-Anchicayá.","11","28","3.609219","-76.883675"
"El Cairo Vereda La Tulia","11","31","4.799308","-76.19993"
"(3.449, -76.621) kantú","11","33","3.448503","-76.62132"
"Via a La Elvira, Valle del Cauca, CO (3.529, -76.616)Finca El Nido Del Bosque","11","33","3.529123","-76.615814"
"CO-Valle Del Cauca-Cali (3,5439,-76,5807)","11","34","3.54394","-76.580696"
"Unnamed Road, Valle del Cauca, CO (3.512, -76.599)","11","38","3.512299","-76.5989"
"Restaurante La Chorrera del Indio","11","39","3.331271","-76.61741"
"Reserva La Montañita Yotoco Valle Del Cauca Primavera","11","42","3.998069","-76.446884"
"La Ventura La Cumbre","11","44","3.631468","-76.582924"
"Escaleras hacia Cerro Riqueza (ANC)","11","44","3.595","-76.892"
"Vía sin nombre, Valle del Cauca, CO (3.944, -76.492)","11","45","3.94448","-76.49169"
"Parcelacion Los Morales","11","45","3.574587","-76.571014"
"Carretera hacia Cerro Riqueza (ANC)","11","50","3.598","-76.888"
"Vía a Felidia, Felidia, Valle del Cauca, CO (3.469, -76.629)","11","51","3.469135","-76.62923"
"(3.625, -76.17) Madhú.Los Colores","11","54","3.624921","-76.16974"
"Cañón del Río Digua--Cascada de La Virgen","11","62","3.532183","-76.77978"
"Vereda El Topacio, sitio El Topacio","11","68","3.313972","-76.644222"
"Anchicaya, La Riqueza","11","71","3.594217","-76.895633"
"PNR Páramo del Duende","11","72","4.033333","-76.465833"
"PNN Uramba--Ladrilleros","11","82","3.938889","-77.36528"
"3.5663x-76.5856 - Dec 7, 2016, 5:30 PM","11","86","3.566287","-76.58557"
"Club Campestre de Cali","11","94","3.368859","-76.54554"
"Restaurante Aqui me Quedo Dagua, I-19 No. 2 a 100","11","107","3.53097","-76.61994"
"Reserva Natural Madhú, La Paula","11","111","3.630821","-76.19716"
"Restaurante ""Aquí me quedo""","11","113","3.544978","-76.61552"
"Cafe Tandil, 2254 Calle 2, Valle del Cauca, CO (4,325, -75,834)","11","116","4.324705","-75.83449"
"Finca Daly","11","121","3.560099","-76.561745"
"Museo de la Caña de Azúcar","11","125","3.626733","-76.223145"
"Cartago, Vereda El Enfado","11","181","4.754966","-75.89424"
"Finca La Chacona, Corregimiento Borrero Ayerbe, VDC","11","206","3.567615","-76.608665"
"Finca Ecoturística Villa Estela","11","352","3.297644","-76.17706"
"PN de La Uva--Cultivo de Aloe Vera","11","403","4.527307","-76.09065"
"Vereda La Clorinda","11","1003","3.548972","-76.63003"
"Finca Ronda Gyrola (histórico)","11","1476","3.55992","-76.56353"
"San Cipriano und Umgebung","10","10","3.837058","-76.897621"
"Finca La Gregoria","10","10","4.625177","-76.28074"
"Camino Galapagos (Valle)","10","10","4.837411","-76.212715"
"Mirador El Topacio Pance","10","10","3.322488","-76.63125"
"La Cabana Restaurant","10","10","3.503928","-76.61889"
"km finca Florida","10","10","3.527734","-76.61693"
"Casa de Olman","10","10","3.563217","-76.60318"
"Km 17","10","10","3.596902","-76.64438"
"Vereda- Bellavista Y Paramillo","10","10","4.483333","-76.3"
"Entrada Pasando Dapa, Valle del Cauca, CO (3.565, -76.575)","10","10","3.56484","-76.57471"
"Valle del Cauca, CO (3,993, -75,925)","10","10","3.992688","-75.92517"
"Ruta Nacional 19 2–84, Santiago De Cali CO-Valle Del Cauca (3.5312,-76.6203)","10","10","3.531158","-76.620285"
"Valle del Cauca, CO (3.883, -76.135)","10","10","3.882879","-76.13454"
"La Cumbre","10","11","3.63094","-76.582375"
"Alto Anchicayá--old road to Buga, km 50-62","10","12","3.533392","-76.75216"
"Via Queremal - El Descanso","10","12","3.526576","-76.73437"
"Quebrada El Rincón (Dapa)","10","13","3.569794","-76.57004"
"Unnamed Road, Valle del Cauca, CO (4.822, -76.177)","10","13","4.82178","-76.17672"
"La Plata","10","13","3.93","-77.22934"
"vía a Frisoles","10","14","3.889057","-76.1765"
"Vereda Alta Cristalina","10","15","4.01086","-76.47628"
"Km El 18","10","15","3.537751","-76.58501"
"Araucana Lodge und Umgebung","10","16","3.574443","-76.619026"
"Vereda Chicoral, Corregimiento Bitaco, cuenca alta del río Bitaco, Finca Montebello, tras la tambocha","10","17","3.558333","-76.582778"
"San Antonio","10","17","3.216667","-76.65"
"Queremal","10","17","3.516667","-76.716667"
"Aqui me quedo","10","17","3.53135","-76.62011"
"Estación Zygia","10","18","3.441848","-76.66272"
"San Antonio _ Ferrucos","10","19","4.833362","-76.2073"
"Reserva Cantalia","10","20","3.761113","-76.20391"
"Unnamed Road, Valle del Cauca, CO (3.572, -76.569)","10","20","3.572459","-76.569145"
"Valle del Cauca, CO (3.63, -76.156)madhú Carretera","10","20","3.630474","-76.15558"
"760528, Dagua CO-Valle Del Cauca 3.53466, -76.75348","10","20","3.534663","-76.75349"
"La Batea de los colibris, Valle del Cauca, CO (3.325, -76.623)","10","20","3.324912","-76.622574"
"760528, Dagua CO-Valle Del Cauca 3.53467, -76.75347","10","20","3.534671","-76.75347"
"Habitats BSA Bosque San Antonio","10","20","3.512284","-76.59894"
"La Barra","10","21","3.944834","-77.38289"
"El Otobo","10","22","3.570353","-76.617455"
"El Cairo","10","22","4.782473","-76.25679"
"CO-Valle Del Cauca-Santiago De Cali (3.5746,-76.6188)","10","22","3.574603","-76.6188"
"Vereda Carpatos","10","23","3.421667","-76.65056"
"Restaurante Aquí me Quedo","10","24","3.536217","-76.624146"
"22-32 Calle 2, Caicedonia, Valle del Cauca, CO (4.325, -75.834)","10","27","4.32475","-75.834274"
"Finca Hábitats BSA Bosque San Antonio","10","29","3.512238","-76.59905"
"Via Tribunas - Las Cruz","10","33","3.92457","-76.51205"
"PNN Uramba--Juanchaco","10","33","3.932504","-77.34843"
"Fausadan finca, Valle del Cauca, CO (3.738, -76.678)","10","34","3.738049","-76.67777"
"Reserva Ecológica El Robledal","10","38","3.375421","-76.6346"
"Chuscales, Zona de ampliación páramo del Duende","10","40","4.255103","-76.43274"
"Reserva La Esperancita","10","41","4.131394","-76.37442"
"Vereda El Cedral, El Águila. Valle del Cauca, CO","10","43","4.879448","-76.10378"
"RN El Laguito","10","43","4.706289","-76.24752"
"Río Blanco","10","51","3.60335","-76.80475"
"Finca Araucana","10","55","3.573935","-76.65462"
"Vereda el Faro","10","57","3.434459","-76.583954"
"San Cipriano","10","58","3.827431","-76.89923"
"Finca La Chacona, BORRERO Ayerbe, VDC, COLOMBIA","10","64","3.567557","-76.6086"
"Reserva Natural Madhú, Los Colores","10","71","3.624883","-76.169754"
"Jardín Botánico Juan María Céspedes","10","75","4.029408","-76.16692"
"Curigua Ecolodge","10","82","3.879074","-76.174126"
"CO-Valle del Cauca-La Cumbre-Unnamed Rd - 3.574x-76.582","10","88","3.573893","-76.58217"
"Cali - Dagua, Valle del Cauca, CO (3.531, -76.62)","10","100","3.53113","-76.61993"
"Anchicaya, Murrapal","10","108","3.55055","-76.891733"
"El Rayito","10","116","3.862453","-76.22569"
"Rio La Vieja Fincas - Valle del Cauca","10","150","4.662661","-75.76498"
"La Huerta Hotel","10","275","3.889448","-76.441925"
"Ecoparque Lago de las Garzas","10","302","3.331591","-76.536835"
"3 jul. 2020 2:48 p. m.-3.359, -76.62","9","9","3.359372","-76.62018"
"Zygia trocha principal (3,4396,-76,6637)","9","9","3.439635","-76.66367"
"La Teresita, CVC","9","9","3.450291","-76.63333"
"Lomalinda","9","9","3.573985","-76.58208"
"La Casa de las Nubes","9","9","3.568852","-76.5866"
"Páramo, Finca La Lutecia - Complejo de Páramos Chilí Barragán","9","9","4.01248","-75.80737"
"3.49x-76.617 - 13 oct. 2016 10:22","9","9","3.489926","-76.616646"
"Parcelación El Silencio","9","9","3.528592","-76.61179"
"Via Cali - Dagua 32–74, Cali CO-Valle Del Cauca 3.53122, -76.61995 restauran aquí me quedo","9","9","3.531217","-76.61996"
"KM 18, San Antonio, Valle del Cauca, Colombia","9","9","3.532954","-76.61265"
"Bajo Anchicaya","9","9","3.76667","-77.10833"
"3,5426 X -76,5917","9","9","3.54263","-76.59172"
"kilometro diez yocho","9","9","3.537622","-76.62026"
"Peñas Blancas, PNN Farallones de Cali, Valle del Cauca","9","9","3.429119","-76.65367"
"Hacienda La Venta","9","9","4.1989","-76.0764"
"Finca Zingara, La Elvira","9","9","3.53","-76.6"
"Predio La Morelia, correg. Cerro Azul, municipio Bolivar","9","9","4.28091","-76.27705"
"Quebrada Honda, sector La Tulia","9","9","3.43496","-76.62936"
"Via a Bitaco y Lomitas, Valle del Cauca, CO (3,574, -76,62)","9","9","3.573942","-76.61972"
"Carretera El Silencio,El Silencio","9","9","3.541108","-76.603299"
"Finca Aurora","9","9","3.322381","-76.623375"
"Finca Alejandria, Valle del Cauca, CO (3,539, -76,606)","9","9","3.539063","-76.60612"
"Finca Alejandria, -Paraiso de los colibries, km18","9","9","3.539646","-76.606316"
"Vereda San Isidro, finca La Morelia","9","9","4.28091","-76.27705"
"(3,555, -76,579)","9","9","3.554938","-76.57941"
"El Discanco","9","9","3.537806","-76.755516"
"El Condado","9","9","3.543951","-76.580925"
"E28","9","9","3.713523","-76.67324"
"Al Balcon de Los Calibries","9","9","3.521035","-76.61958"
"Dagua - Araucana lodge","9","9","3.57458","-76.6187"
"Condado Beverly","9","9","3.544226","-76.58194"
"Valle del Cauca - Dapa","9","9","3.566807","-76.55004"
"CO-Valle Del Cauca-Yumbo - 3,5728x-76,5522 - 13/05/2017, 5:16 p.m.","9","9","3.572767","-76.552185"
"Unnamed Road, Valle del Cauca, CO (3,49, -76,616) finca Lolita","9","11","3.489689","-76.61642"
"Buenaventura, Valle del Cauca, CO (3.534, -76.754)","9","11","3.534285","-76.754456"
"Pueblo Pance","9","11","3.331099","-76.63577"
"Finca El Descanso","9","11","3.534382","-76.75227"
"Via a Bitaco y Lomitas, Valle del Cauca, CO (3.575, -76.619)","9","11","3.574808","-76.618835"
"Hacienda Tokio, antena Telecom","9","12","3.526865","-76.715195"
"Vereda Palermo","9","12","3.89597","-76.54514"
"El Cominal-Corea","9","12","3.352862","-76.648735"
"Loma Azul","9","12","3.528601","-76.61619"
"Centro Cultural to La Brasilia","9","13","3.449058","-76.63152"
"Finca La Grandeza de Dios , Potrerillo Palmira Valle del Cauca Colombia","9","14","3.555943","-76.20863"
"Finca “El Fisto”","9","14","3.496892","-76.61249"
"Predio Los Cauchos","9","14","3.72075","-76.067"
"El Cairo Vereda La Cancana","9","14","4.783079","-76.20761"
"Carretera El Queremal - Anchicayá","9","15","3.526454","-76.72622"
"Dapa general area","9","16","3.558311","-76.55664"
"RN Reserva Madhú 2900 m","9","17","3.64765","-76.13915"
"Reserva Natural El Laguito","9","17","4.701806","-76.23814"
"Valle del Cauca, CO (3.37, -76.623)","9","18","3.370162","-76.62284"
"El Queremal","9","18","3.533696","-76.71161"
"El Pato, Estación biológica Zygia","9","18","3.4405","-76.67444"
"Galapagos, 1975 m asl","9","18","4.823272","-76.17832"
"760009, Cali CO-Valle Del Cauca 3.52797, -76.61684","9","18","3.527969","-76.616844"
"La Embajada","9","18","3.51008","-76.6196"
"PNN Farallones de Cali - Estacion Farallones","9","18","3.446434","-76.67275"
"Balcón de los colibríes, San Francisco, Valle del Cauca, CO (3.338, -76.599)","9","18","3.337573","-76.59854"
"Finca ""El Descanso"", Doña Dora","9","19","3.534473","-76.7536"
"El Mocho-Sinai San José Del Palmar Chocó, CO (4,831, -76,204)","9","19","4.830885","-76.203575"
"Bajo Calima, Cartón de Colombia, cuartel BV-83","9","19","3.942107","-76.9684"
"Via Las brisas - La Carbonera","9","21","4.76925","-76.160805"
"Vía a El Carmen, Valle del Cauca, CO (3.531, -76.62)","9","25","3.53079","-76.62025"
"Upper Anchicaya, Old Bonaventure Road","9","27","3.63184","-76.90095"
"Buenaventura, Bajo Anchicaya","9","27","3.61891","-76.91293"
"Villa Pension Dapa, Valle del Cauca, CO (3.544, -76.581)","9","28","3.543887","-76.58086"
"Agua Clara","9","28","3.648916","-76.95054"
"Valle del Cauca, CO (3,935, -76,489) Alto Tribunas Calima El Darien","9","28","3.935003","-76.48861"
"Playa Juan de Dios","9","30","3.906814","-77.319534"
"Araucana Lodge. Valle Del Cauca-Santiago De Cali (3.5745,-76.6188)","9","30","3.574473","-76.61876"
"Unknown Location - (3.438, -76.662)","9","33","3.43833","-76.66174"
"Centro Forestal Tropical del Bajo Calima","9","33","3.915856","-76.963425"
"La Granjita, Calima El Darien (3,9552,-76,4747)","9","35","3.955162","-76.47467"
"Vereda LA GALANA, predio LA PLATINA","9","35","4.893556","-76.028056"
"Dagua, Valle Del Cauca, Dagua CO-Valle Del Cauca (3.5388,-76.7549)","9","36","3.538825","-76.75485"
"Monte Icaro, Birds & Coffee (El Líbano)","9","38","3.503889","-76.193886"
"Bosque de chusque a 2600 a 3090 m camino a Pico Pance3.3335 X -76.6656","9","39","3.33354","-76.66564"
"Lodge Santa Eulalia (El Saladito)","9","40","3.479925","-76.61473"
"Casa de Observadores (acceso restringido)","9","41","3.575149","-76.879166"
"Antigua Estación de Korea","9","43","3.35823","-76.6599"
"restarante mirador","9","45","3.530805","-76.620094"
"Corregimiento El Salado, Las Hermosas National Natural Park, Buga CO-Valle Del Cauca 3.84720, -76.04388","9","45","3.8472","-76.04388"
"Entrada La Minga (Puerta Naranja)","9","48","3.569443","-76.57946"
"""Cuenca río Tuluá, corregimiento Santa Lucía, finca la Cascada""","9","59","3.974389","-75.97425"
"La Maima","9","64","3.545645","-76.566475"
"Colombia Valle del Cauca, Araucana Lodge","9","70","3.57281","-76.61899"
"Transcepto Casco Urbano El CAIRO - Sonadora","9","71","4.764331","-76.219315"
"(3.568, -76.609) La Chacona","9","74","3.56757","-76.60854"
"Cond. Lagos de Maracaibo (3,5620,-76,2040)","9","76","3.561995","-76.20398"
"Embalse-La Batea","9","80","3.541717","-76.878883"
"Finca el vergel verda mira flores","9","90","3.844828","-76.21848"
"Atuncela, Valle del Cauca, CO (3.737, -76.676)","9","109","3.737437","-76.6756"
"San Alejo, La Buitrera","9","118","3.476097","-76.201965"
"Parque de Las Heliconias - Jardín de Flores Tropicales y Exóticas","9","138","4.312717","-75.87488"
"Ecoparque de La Bandera","9","149","3.4035","-76.5617"
"Complejo de Humedales de Guarino","9","373","3.120031","-76.56186"
"Paraiso de los colibries","8","8","3.539167","-76.605835"
"PNN Farallones de Cali--Vereda El Cedral","8","8","3.464186","-76.640015"
"Via a La Elvira, Valle del Cauca, CO (3.528, -76.614)","8","8","3.527991","-76.61382"
"Buenaventura, Valle del Cauca, CO (3.533, -76.752)","8","8","3.533344","-76.75208"
"CO-Valle Del Cauca-Cali (3,5285,-76,6155)","8","8","3.528504","-76.61553"
"Km 20-26","8","8","3.542298","-76.618385"
"Bosque Nublado de San Antonio and lunch at Km 18","8","8","3.497","-76.628"
"Km 55 Antigua Carretera A Buenaventura CO (3.528, -76.742)","8","8","3.52771","-76.74152"
"El Cairo, Valle del Cauca, CO (4,802, -76,165)","8","8","4.801769","-76.16537"
"La Brasilia, EMCALI","8","8","3.451633","-76.62829"
"Vía La Maria a Buenos Aires (Buga)","8","8","3.9305","-76.19801"
"Bosque de niebla, Finca Ricon Santo - Complejo de Páramos Chilí Barragán","8","8","4.10254","-75.84595"
"Shrangri-La","8","8","3.308974","-76.59202"
"La Colonia","8","8","3.950516","-76.39175"
"La Cumbre area","8","8","3.700011","-76.50742"
"Cerro El Inglés,S.","8","8","4.741174","-76.296555"
"Unnamed Road, Valle del Cauca, CO (3.546, -76.565)","8","8","3.546417","-76.565254"
"La Florida bosque de aves, km18","8","8","3.528205","-76.61712"
"Chicoral - Corregimiento Bitaco","8","8","3.566302","-76.563878"
"Unnamed Road, Valle del Cauca, CO (3.572, -76.58)","8","8","3.603041","-76.58192"
"Corregimiento Bítaco, Municipio La Cumbre","8","8","3.607872","-76.59848"
"Unnamed Road, Valle del Cauca, CO (3.626, -76.593)","8","8","3.625645","-76.59267"
"CONDADO bEVERLY","8","8","3.548759","-76.58477"
"Alto Anchicayá--El Descanso","8","8","3.600543","-76.85842"
"(3.56, -76.576)","8","8","3.56047","-76.57633"
"Valle del Cauca, CO (3,881, -76,56)","8","8","3.881422","-76.55971"
"Los Carboneros","8","8","3.557691","-76.61119"
"Ascenso Alto Pance","8","8","3.336172","-76.693085"
"Reserva Regional Bitaco","8","8","3.564194","-76.585335"
"Finca La Lolita","8","8","3.489712","-76.616554"
"Vía a Borrero Ayerbe, Dagua CO-Valle del Cauca 3.53113, -76.62000","8","8","3.531127","-76.62"
"San Francisco","8","9","3.325835","-76.62308"
"Cali - Dagua, Valle del Cauca, CO","8","9","3.518152","-76.62008"
"Un pasito a la vez","8","9","3.353887","-76.611084"
"Región del Alto Calima","8","9","3.88","-76.7"
"31 - Ginebra, Valle del Cauca, CO (3,631, -76,197)","8","9","3.631017","-76.19725"
"Alto San Jose del Salado, Valle del Cauca, CO (3.571, -76.73)","8","9","3.570901","-76.72984"
"Lagos de Pance","8","10","3.333224","-76.60773"
"Llano Bajo, Río Bartolo","8","10","3.683306","-76.972534"
"El Cairo Road","8","10","4.808961","-76.15856"
"Finca Costa Rica","8","10","4.746577","-76.24662"
"El Cominal - PNN Farallones de Cali","8","10","3.349077","-76.64669"
"Auto selected 3.32492, -76.62930","8","11","3.324924","-76.629295"
"El Descanso de Doña Dora","8","11","3.524148","-76.75358"
"San Pablo","8","12","3.496208","-76.62196"
"El Sinaí San José del Palmar Chocó, CO (4,836, -76,191)","8","12","4.835665","-76.19079"
"Cali - Dagua, Valle del Cauca, CO (3.517, -76.621)","8","12","3.517494","-76.62065"
"Bosque de San Antonio/KM 18","8","12","3.5","-76.63333"
"Bosque del Silencio","8","12","3.402416","-76.61489"
"Mi Universo","8","13","3.5362","-76.60568"
"Anchicaya","8","13","3.54127","-76.87829"
"Vereda Chicoral, Corregimiento Bitaco, cuenca alta del río Bitaco","8","13","3.569111","-76.588722"
"Cali - Dagua, Valle del Cauca, CO (3.504, -76.617)","8","14","3.503694","-76.61703"
"Quebrada El Cuzumbo","8","14","3.902417","-76.648667"
"Vereda Jiguales","8","14","3.8836","-76.46108"
"Reserva Natural El Pital, El Cairo.","8","15","4.74926","-76.20278"
"CO-Valle Del Cauca-Santiago de Cali - Finca Minga 3,5664x-76,5853 - 17/03/2017, 12:13","8","15","3.566373","-76.58526"
"Centro Forestal y Ambiental Bomberos Yumbo","8","15","3.568011","-76.53433"
"Colombia - Estadero Aqui Me Quedo","8","16","3.53109","-76.619965"
"Aqui Me Quedo","8","16","3.531102","-76.619865"
"Reserva Ecotonos 1 Trayecto Parte Baja","8","16","3.572521","-76.60673"
"CO-Valle del Cauca-Pradera - 3,465x-76,186 - 15 may. 2017 12:04 a. m.","8","16","3.465334","-76.186005"
"Sector murrapal, Anchicayá, El Danubio, Valle del Cauca","8","16","3.554837","-76.87566"
"Mid Anchicaya","8","16","3.610678","-76.8946"
"Villa Cielo","8","16","3.332","-76.635"
"Finca Zíngara, cgto. La Elvira, vda km 18","8","16","3.533333","-76.6"
"Valle del Cauca los Andes , CO (3.757, -76.056)","8","16","3.756591","-76.05598"
"CO-Valle del Cauca-Buenaventura- 3.574x-76.879 - 13 may. 2017 12:31","8","16","3.574479","-76.87854"
"Hotel Casa Blanca","8","16","3.894779","-76.179634"
"El Cairo (pueblo)","8","17","4.761803","-76.22066"
"Páramo de Valle Bonito","8","17","3.75275","-76.01994"
"Unnamed Road, Valle del Cauca, CO (4,817, -76,166)","8","18","4.817199","-76.16598"
"(3.6189,-76.9039)","8","18","3.618868","-76.90387"
"San Antonio Sn José Palmar Chocó, CO (4,833, -76,207)","8","19","4.832989","-76.20672"
"Anchicaya,S.","8","19","3.620144","-76.905106"
"Río San Juan, afluente del Digua, cerca al Queremal","8","21","3.534537","-76.754336"
"Cali Private residence","8","22","3.393508","-76.55518"
"Parque Nacional Natural Farallones De Cali, Vereda El Pato","8","22","3.312366","-76.5799"
"Sendero Chorro De Plata-Otoño","8","22","3.350753","-76.59728"
"Sendero Organico,vereda la ventura,municipio la Cumbre, Valle del Cauca, CO","8","22","3.631585","-76.58321"
"Veereda El Engaño Valle del Cauca, CO (3.579, -76.788)","8","22","3.579379","-76.78782"
"Carretera Buenaventura a Lobo Guerrero, km 28, río Dagua","8","22","3.8639","-76.83623"
"Parque De Las Heliconias","8","23","4.311949","-75.87557"
"San Marcos","8","23","3.7","-76.95718"
"El Mocho-Los límites San José del Palmar Chocó, CO (4,831, -76,203)","8","23","4.831027","-76.203445"
"Valle del Cauca, CO (3.628, -76.165)madhú Miravalle","8","24","3.627738","-76.165474"
"Vía al Boleo, Valle del Cauca, CO (3.955, -76.475)","8","24","3.955168","-76.47458"
"km18 general","8","24","3.533633","-76.61022"
"CO-Valle del Cauca-La Cumbre - 3.566x-76.585 - Dec 8, 2016 06:09","8","24","3.566253","-76.58521"
"RN. la Cumbre","8","25","3.639282","-76.552505"
"Vereda El Moral Bajo","8","27","3.6752","-76.0895"
"Camino a Minas del Socorro","8","27","3.398189","-76.655685"
"Parcelacion el Ensueño, Etapa I y II","8","28","3.5675","-76.6089"
"Parque Simón Bolívar Cali","8","29","3.454605","-76.53325"
"San Juan, Miravalle","8","30","4.088217","-75.8039"
"Buenaventura, Valle del Cauca, CO (3.535, -76.754)","8","30","3.534575","-76.75368"
"Yatacue","8","31","3.5747","-76.886767"
"Villacarmelo, Valle del Cauca, CO (3.377, -76.618)","8","31","3.377426","-76.617775"
"RN la Castalia Alcira Montoya","8","32","4.347221","-75.80459"
"760528, Dagua CO-Valle Del Cauca 3.52698, -76.73372","8","33","3.526975","-76.73372"
"Finca La Chacona","8","38","3.567666","-76.61155"
"Camino Km 18","8","40","3.530353","-76.6123"
"Hacienda San Sebastián de los Alpes","8","45","3.763365","-76.0511"
"Club Del Departamento Cali Valle Delcauca","8","57","3.344778","-76.5903"
"La Candelaria","8","58","3.373067","-76.623535"
"Loboguerrero","8","62","3.805139","-76.640306"
"Parque de La Babilla","8","69","3.36066","-76.53886"
"Bosque Municipal de Palmira","8","104","3.528379","-76.28646"
"Rio Cali","8","169","3.44986","-76.55546"
"Zoológico de Cali","8","236","3.44795","-76.55871"
"Ecoparque Rio Pance","8","284","3.347538","-76.58038"
"La Pajarera, Lomalarga","8","441","3.311323","-76.57442"
"el descanso","7","7","3.53471","-76.75358"
"Valle del Cauca, CO (3.671, -76.944)","7","7","3.670999","-76.9443"
"CO-Valle Del Cauca-Santiago De Cali (3.4899,-76.6168)","7","7","3.489864","-76.6168"
"CO-Valle Del Cauca-Santiago De Cali (3.4900,-76.6161)","7","7","3.490042","-76.61612"
"Valle del Cauca, CO (3.616, -76.897) Old Buenaventura Road","7","7","3.615794","-76.89703"
"Valle del Cauca, CO (3,445, -76,669)","7","7","3.444537","-76.66903"
"Colombia, Valle, Cali, Pance, Vereda El Pato, Finca Eucalipto en Pueblito Pance","7","7","3.328491","-76.63558"
"Chicoral Dapa, Valle del Cauca, CO (3.569, -76.577)","7","7","3.568777","-76.57658"
"Vereda Cedrales, finca El Vergel","7","7","4.26366","-76.32932"
"Cristalina Alta, Reserva Natural de la Sociedad Civil Buena Vista","7","7","4.02402","-76.479"
"Vereda el Cairo","7","7","4.815791","-76.17633"
"Dagua","7","7","3.722081","-76.671539"
"Unnamed Road, Valle del Cauca, CO (3.494, -76.626)","7","7","3.494384","-76.62592"
"El Encanto Ecoturismo de Montaña","7","7","3.827473","-76.026375"
"Casa Madhu","7","7","3.630879","-76.196945"
"Estación Biologica De La Universodad Icesi - Farallones","7","7","3.441844","-76.66267"
"RNSC El Jurásico (Dagua, Valle) (3,554, -76,607)","7","7","3.554313","-76.60666"
"Carretera KM 18","7","7","3.532362","-76.611206"
"Aqui Me Quedo restaurant","7","7","3.53109","-76.619965"
"Vereda San Isidro, finca Pescadores","7","7","4.28994","-76.31069"
"Bahía - De Buenaventura","7","7","3.883431","-77.062012"
"Cantarrana, El Dovio, Valle del Cauca, CO (4.467, -76.274)","7","7","4.467248","-76.27383"
"Predio Pescadores, Vereda San Isidro, Bolivar","7","7","4.303238","-76.29871"
"760009, Cali CO-Valle Del Cauca 3.52835, -76.61718 as","7","7","3.528346","-76.61718"
"Predio El Vergel, correg. Dos Quebradas, municipio Trujillo","7","7","4.292454","-76.30206"
"Hotel Villa Saman (refugio campetre), Dagua","7","7","3.567447","-76.6373"
"Kilómetro 18 , Valle del Cauca, CO (3.529, -76.616)","7","7","3.528776","-76.61601"
"3,506x-76,615 - 12 mar. 2017 6:46 p. m.","7","7","3.505941","-76.6151"
"Vía Cerro La Horqueta, San Antonio, Valle del Cauca, CO (3,496, -76,625)","7","7","3.496247","-76.62528"
"3.6183 X -76.9042","7","7","3.61829","-76.90417"
"Bosque De Niebla San Antonio Valle del Cauca, CO (3.491, -76.628)","7","7","3.491255","-76.628265"
"La Leonera, Valle del Cauca, CO (3,454, -76,635)","7","7","3.454075","-76.63488"
"Marandua, Valle del Cauca, CO (3.454, -76.636)","7","7","3.454216","-76.63567"
"La Minga, Via Dapa-Bitaco","7","7","3.569889","-76.57603"
"Villa Eugenia","7","7","3.431783","-76.61765"
"Villa luz - km 24- 3,5467x-76,6152 - 18/05/2017, 11:15 a.m.","7","7","3.546736","-76.61523"
"""Canada Valley"", SSE of Sevilla","7","7","4.171924","-75.89345"
"CO-Valle Del Cauca-Dagua - 3.5652x-76.7583 - May 14, 2017, 9:36 AM","7","7","3.565177","-76.75835"
"Parque Nacional de las Heliconias, Caicedonia, Valle del Cauca, Colombia (4.312, -75.875)","7","8","4.312306","-75.874825"
"RNSC El Hotizonte","7","8","4.51918","-75.904434"
"La Virgen","7","8","3.618575","-76.90394"
"El Helechal - Camino Minas del Socorro","7","8","3.410278","-76.66583"
"La Teresita CvcValle del Cauca, CO (3.449, -76.662)","7","8","3.448984","-76.66222"
"Valle del Cauca, Vereda Ginebra (3,77, -76,196)","7","8","3.770179","-76.1961"
"Vereda Carrizal","7","9","3.661222","-76.112167"
"Predio La Cumbre","7","9","3.7405","-76.076472"
"Tequendama Valle del Cauca","7","9","3.742726","-76.08148"
"Campamento EPSA","7","9","3.57602","-76.87933"
"Finca Gustavo","7","10","3.537619","-76.60627"
"Reserva Natural Cerro El Inglés, El Cairo, Valle del Cauca","7","10","4.749571","-76.24992"
"Lek Gallo de Roca - Pato Leonera","7","10","3.451794","-76.66099"
"Sendero Chorroplata-puente Amarillo (Río)","7","10","3.335032","-76.60593"
"Río Azul","7","10","3.929503","-76.674872"
"Via a La Elvira, Valle del Cauca, CO (3.524, -76.618)","7","10","3.52398","-76.61751"
"Predio El Horizonte","7","10","4.519","-75.9046"
"Rio Frio","7","10","4.15","-76.300003"
"Parque de la Uva- La Unión Valle","7","10","4.529367","-76.08732"
"Finca La Teresita","7","11","3.560713","-76.666016"
"Puente Amarillo","7","11","3.333349","-76.609955"
"Vía al Boleo, Valle del Cauca, CO (3,955, -76,475)","7","11","3.955217","-76.47465"
"Unnamed Road, Atuncela, Valle del Cauca, CO (3.738, -76.676)","7","11","3.738267","-76.67627"
"Localidad desconocida - (3,641, -76,189)","7","12","3.641179","-76.18928"
"Rmus","7","12","3.393834","-76.58609"
"Villa Migelita Colombia","7","12","3.49897","-76.18811"
"Llano Bajo, Río Anchicayá","7","12","3.697635","-76.95831"
"Vereda La Virginia, Predio El Nogal","7","12","4.510524","-76.323236"
"CO-Valle del Cauca-Dagua-Buenaventura - 3.535x-76.753","7","13","3.534658","-76.753494"
"Quebrada Lucas, 2 km de la desembocadura en el río Zabaletas","7","13","3.76872","-76.91643"
"Curigua","7","13","3.875592","-76.17135"
"Vereda Mateguadua, Parque Nacional Regional Mateguadua","7","13","4.027","-76.16025"
"El Otoño","7","13","3.366208","-76.612045"
"(3,575, -76,619)","7","14","3.574645","-76.618835"
"Cristalina alta","7","14","4.02402","-76.479"
"Seleccionado automáticamente-3.531, -76.62","7","14","3.531083","-76.61988"
"Dapa","7","14","3.53874","-76.5749"
"Vereda El Jardín","7","14","3.319128","-76.605237"
"Buenaventura,Alto Anchicaya 3.575x-76.879 - May 13, 2017 05:27 AM","7","14","3.574615","-76.87856"
"Finca el Cominal (3,4863,-76,1722)","7","14","3.486298","-76.17223"
"Finca La Esperanza","7","14","3.549311","-76.6302"
"Galapagos Road; lower eastern slope","7","14","4.806792","-76.16092"
"La Maria, Dagua Valley, W. Colombia","7","14","3.68333","-76.63333"
"Colombia- Araucana Lodge","7","14","3.576129","-76.61936"
"Galapagos Road: before pass-eastern slope","7","14","4.829158","-76.210144"
"9/12/2019 8:23-3,566, -76,585","7","14","3.566358","-76.5853"
"Bosque de buenos aires ""El Calvo""","7","14","3.331396","-76.645065"
"760528, Dagua CO-Valle Del Cauca 3.75101, -76.67318","7","14","3.751013","-76.67318"
"Finca Yihad","7","14","3.560217","-76.557"
"Colombia, Valle, Cali, Pance, La Vorágine, Ecoparque Parque de la Salud","7","15","3.336462","-76.60111"
"Casa Luz Elena","7","15","3.371382","-76.59762"
"Valle del Cauca, CO (4.751, -76.243)","7","16","4.750979","-76.243195"
"Via Dapa Km18","7","16","3.549819","-76.60318"
"Cali--Km 18, rte 19 W of city","7","16","3.489647","-76.61677"
"San Antonio, Buenaventura","7","17","3.850278","-77.00861"
"Ecohotel El Castillo","7","17","3.346002","-76.56958"
"Rio Tatabro","7","17","3.671333","-76.94681"
"Murrapal","7","18","3.550754","-76.8898"
"Finca San Isidro Vereda San José Calima El Darién Valle del Cauca, CO (3,89, -76,499)","7","18","3.889922","-76.49878"
"1128 Carrera 6, El Cairo, Valle del Cauca, CO (4.765, -76.219)","7","18","4.764772","-76.219284"
"Antena del Oleoducto","7","18","3.737778","-76.676389"
"Localidad desconocida - (3.531, -76.62)","7","18","3.531272","-76.619865"
"Altos De San José Del Salado","7","18","3.571303","-76.72832"
"Km 50-Los carros Viejos","7","19","3.526758","-76.73382"
"Toxic Tour (3,487, -76,553)","7","19","3.486931","-76.55305"
"Vereda El Pato La leoonera Valle Del Cauca, CO (3.437, -76.676)","7","19","3.437217","-76.67569"
"Finca yeyo","7","21","3.561533","-76.61716"
"CO-Valle Del Cauca-Santiago De Cali (3.5740,-76.6197)","7","21","3.573955","-76.61974"
"CO-Valle del Cauca-Dagua - 3.609x-76.884 - 10 oct. 2016 19:49","7","21","3.609385","-76.8843"
"CO-Valle del Cauca-El Cairo-Unnamed Road - 4.826x-76.179 - may. 20, 2017 13:52","7","21","4.826344","-76.17897"
"Bitaco (pueblo)","7","22","3.610051","-76.599724"
"Vereda San Isidro (Bolivar, Valle del Cauca)","7","22","4.30242","-76.28655"
"Puerto frazadas","7","24","4.048659","-75.99296"
"Finca El Guatin Buga Valle Del Cauxa","7","24","3.9293","-76.2017"
"Alto Anchicayá- quebrada la Loca/campamento (Yatacue) - 3.5740x-76.8821 - May 14, 2017, 14:40","7","25","3.573952","-76.88207"
"Hacienda San Sebastián de los Alpes - Golondrinas","7","26","3.746191","-76.04617"
"Verde Esperanza, Valle del Cauca, CO (3.742, -76.078)","7","26","3.741965","-76.07764"
"Cisneros - Río Pepitas","7","27","3.777422","-76.76093"
"RN San Pedro","7","27","3.835278","-77.257774"
"Amor y paz a 2500 metros camino a Pico Pance","7","27","3.33611","-76.66571"
"Los Olivos (estación de campo U. Icesi), vereda El Pato","7","28","3.441888","-76.66254"
"Sendero El Rayito","7","28","3.863234","-76.22577"
"Valle del Cauca, CO (3.87, -76.132)","7","28","3.869719","-76.131935"
"Vereda Monteredondo","7","28","3.76259","-76.5177"
"Atuncela","7","31","3.733297","-76.679222"
"Loma Larga","7","31","3.313769","-76.579666"
"Valle del Cauca, CO (3.424, -76.617)","7","31","3.424388","-76.61706"
"San Antonio, Rio Cali, W Colombia","7","32","4.59334","-76.06349"
"Casa Ashraya","7","32","3.503619","-76.61712"
"El Cedral","7","37","3.4657","-76.64901"
"Club de Campo Y pesca","7","39","4.320248","-75.827934"
"Marandua La Leonera","7","40","3.45224","-76.64356"
"La Barra - PNN Uramba Bahía Malaga","7","42","3.960813","-77.37628"
"PNR El Vínculo","7","45","3.832222","-76.300806"
"RN Villa Maga","7","49","3.378602","-76.62269"
"Riberas del Rosario","7","49","3.260278","-76.54859"
"RN La Tierra Nuestra","7","50","3.915239","-76.11646"
"Calibrí, Vía La Vorágine-Pueblo Pance Km 6","7","51","3.324664","-76.629166"
"Carretera Caicedonia - Los Tanques","7","55","4.332838","-75.83283"
"760528, Dagua CO-Valle Del Cauca 3.52927, -76.74267","7","56","3.529268","-76.74267"
"Club Campestre Los Farallones","7","67","3.326215","-76.54085"
"Finca El Mirador Buenos Aires Crrgto De Sampedro","7","69","3.923887","-76.17628"
"CO-Valle De Cuaca-Colinas de Arroyohondo 3.5219x-76.5270 - Mar 14, 2017, 7:46 AM","7","104","3.521897","-76.52697"
"Ecoparque El Embudo","7","108","3.346605","-76.553"
"Bosque EMCARTAGO E.S.P. Cartago, Valle del Cauca, CO","7","118","4.757752","-75.89683"
"Parque del Acueducto--Colonial San Antonio","7","197","3.447293","-76.543724"
"Río Lili--Ciudad Jardín","7","223","3.367494","-76.53812"
"Club Campestre Farallones","7","328","3.325744","-76.541"
"Bosque Escondido","7","403","3.359777","-76.54402"
"Colombia@3.53,-76.75","6","6","3.530806","-76.749954"
"Carretera Cali-Buenaventura Km 18","6","6","3.520933","-76.62037"
"Finca Yerbabuena","6","6","3.625828","-76.59267"
"Eco Hotel Rural Casablanca","6","6","3.894481","-76.17835"
"Vereda El Paraiso, Finca La Delia, Punto de censo 14","6","6","4.731944","-75.819167"
"Sendero Orgánico Follajes Y Flores ,Vereda La Ventura, Municipio de La.Cumbre Valle del Cauca, CO","6","6","3.631465","-76.58288"
"Upper Anchicayá Valley","6","6","3.573045","-76.77362"
"Predio La Esmeralda, vereda Punta Larga, municipio Bolívar","6","6","4.31202","-76.28661"
"La Quisquina, Palmira, Colombia","6","6","3.565249","-76.17943"
"Sendero Peñas Blancas ""Camino al cielo"" - PNN Farallones de Cali","6","6","3.427422","-76.665504"
"Aqui me Quedo","6","6","3.53109","-76.619965"
"La Esmeralda","6","6","3.662693","-76.71514"
"La Nevera- RNS Peña Lisa","6","6","3.544261","-76.07649"
"Valle del Cauca, Sendero los Reyes CO (3.333, -76.673)","6","6","3.332669","-76.67261"
"La Italia - Laguna Los Chorros Palmira -Valle del Cauca, CO (3.526, -76.061)","6","6","3.525734","-76.06112"
"Parcelacion Chorro de Plata","6","6","3.345066","-76.59376"
"Toboganes Cañon del rio Pance.Valle del Cauca, CO (3.342, -76.664)","6","6","3.341517","-76.66369"
"Vda Combia, Vía a laguna el Encanto PNN Las Hermosas, Palmira","6","6","3.711389","-75.968056"
"Valle del Cauca, CO (3,344, -76,696)","6","6","3.344181","-76.69584"
"Via Burila y Aures, Valle del Cauca","6","6","4.283573","-75.800285"
"Finca La Cascada","6","6","3.228194","-76.703835"
"CO-Valle del Cauca-El Cairo-Reserva Natural Altamira.","6","6","4.780565","-76.21734"
"dapa","6","6","3.561139","-76.556854"
"Cristalina Alta, Reserva Natural de la Sociedad Civil La Esmeralda","6","6","4.121359","-76.435459"
"Hacienda El Volcán","6","6","4.021617","-76.3655"
"Bosque Bendiciones. Vereda Agua Clara","6","6","3.8256","-76.5253"
"Via a Costa Rica, Valle del Cauca, CO (3.761, -76.204)","6","6","3.761024","-76.204094"
"760529, Cali CO-Valle Del Cauca 3.55409, -76.61706","6","6","3.554093","-76.61706"
"CO-Valle del Cauca-La Unión-Parque de la uva","6","6","4.526812","-76.09054"
"Predios Las Palmas y El Castillo, vereda El Bosque, Toro","6","6","4.65","-76.11667"
"RN Providencia","6","6","3.5805","-76.0919"
"Valle del Cauca, CO (3.438, -76.662)","6","6","3.43833","-76.66174"
"Cerro El Inglés-La Fontana, Serranía de Paraguas, El Cairo","6","6","4.758083","-76.29897"
"Bosque La Chapa. Vereda La Chapa","6","6","3.8333","-76.7166"
"Auto selected 3.89498, -76.17968","6","6","3.894981","-76.17968"
"Bahia De Málaga","6","6","3.945174","-77.311123"
"(3,5119,-76,7674)","6","6","3.511894","-76.7674"
"Colombia - Alto Anchicayá. El Descanso (Doña Dora)","6","6","3.534716","-76.75345"
"Valle del Cauca, CO (3.503, -76.74)","6","6","3.503336","-76.74004"
"Vereda Roman, Restrepo","6","6","3.771","-76.579"
"Parque Temático de La Doble Espiral","6","6","3.385085","-76.60745"
"Vereda Punta Larga, finca La Esmeralda","6","6","4.31202","-76.28661"
"Bajo Anchocaya","6","6","3.62005","-76.92936"
"Ruta- Páramo De Las Hermosas Valle del Cauca, CO (3.526, -76.061)","6","6","3.525602","-76.06061"
"Centro de educación ambiental - Las Brisas, Florida","6","6","3.316508","-76.179596"
"Valle del Cauca, CO (3.543, -76.764)","6","6","3.543218","-76.76393"
"Valle del Cauca, CO (3.591, -76.089)","6","6","3.59055","-76.08948"
"Bangsia edwarsi","6","6","3.558294","-76.73335"
"Buenaventura, Valle del Cauca, CO (3,535, -76,753)","6","6","3.534815","-76.75338"
"CO-Valle del Cauca-Cali-Avenida Los Cerros Vía La Voragine - 3.346x-76.589","6","6","3.345793","-76.58915"
"Dona Dora","6","6","3.53482","-76.7533"
"Unnamed Road, Valle del Cauca, CO (3.571, -76.583)","6","6","3.570855","-76.58272"
"Unnamed Road, Valle del Cauca, CO (4.83, -76.18)","6","6","4.829623","-76.18019"
"San Fransisco Corregimiento de Pance, Valle del Cauca, CO (3.327, -76.618)","6","6","3.327215","-76.61843"
"La Arauca, Reserva Natural de la Sociedad Civil El Silencio","6","6","4.173275","-76.398263"
"El Danubio y alrededores","6","6","3.616704","-76.89292"
"Cristalina Alta, Reserva Natural de la Sociedad Civil Las Palmas","6","6","4.130926","-76.422501"
"Finca San Rafael","6","6","3.4775","-76.63702"
"Palmira-Vereda Quisquina","6","6","3.577229","-76.18135"
"San Pablo, Reserva Natural de la Sociedad Civil Los Naranjos","6","6","4.086247","-76.382782"
"Ágora Manantial","6","6","3.451007","-76.63113"
"Casa Lolita","6","6","3.489807","-76.61659"
"Rio Anchicaya Valley/General Area","6","7","3.604558","-76.8784"
"Sendero, el 40, Cisneros, Buenaventura, Valle del Cauca, CO (3.869, -76.832)","6","7","3.868513","-76.83152"
"Barrio Asprodica, Valle del Cauca, CO (4,9, -76,045)","6","7","4.900019","-76.045334"
"Parque Natural Regional Mateguadua","6","7","4.027992","-76.16025"
"Hacienda El Castillo","6","7","3.280364","-76.523888"
"Cumbarco vía a Sevilla Valle del Cauca","6","7","4.222555","-75.88944"
"Pichinde","6","7","3.433334","-76.61668"
"Valle del Cauca, CO (3.601, -76.858)","6","7","3.601367","-76.8585"
"Sendero Rubio-Pt_Amarillo ( Encanto )","6","7","3.353192","-76.62065"
"Predio Santa Elena","6","7","4.287","-75.8471"
"Valle del Cauca, CO (3.491, -76.628)","6","7","3.491045","-76.62824"
"RNSC Santa Elena","6","7","4.287016","-75.84707"
"Carretera Cali - Buenaventura, El Engaño","6","7","3.481667","-76.61053"
"Pericos","6","7","3.856254","-76.80256"
"La Diana, Florida","6","7","3.332984","-76.18143"
"16 ene. 2020 11:39 a. m.-3.528, -76.617","6","8","3.528186","-76.6173"
"Valle del Cauca, CO (3.623, -76.931)","6","8","3.622511","-76.930786"
"La Casita Del Bosque","6","8","3.641532","-76.65674"
"Sevilla area","6","8","4.124278","-75.87666"
"Finca El Abanico, Peñas Blancas","6","9","3.4203","-76.6598"
"Porvenir","6","9","4.5133","-75.8929"
"La Albania","6","9","3.963827","-76.38462"
"Valle del Cauca, CO (3.536, -76.578)","6","9","3.536466","-76.57847"
"RNSC El Porvenir","6","9","4.513322","-75.89333"
"Via a Costa Rica, Valle del Cauca, CO (3,761, -76,204)","6","9","3.760637","-76.20394"
"Finca La Primavera - El Cairo Valle","6","9","4.792563","-76.15234"
"Sonso Lagune bei Buga","6","9","3.865625","-76.347687"
"Corregimiento La Chica, Finca Los Sueños","6","10","4.58612","-76.11481"
"Finca El Nilo","6","10","3.326153","-76.62854"
"Río Pance","6","10","3.32347","-76.56614"
"RN Altamira","6","10","4.779816","-76.216354"
"RNSC Río Bamba","6","10","4.43392","-75.89074"
"Predio Río Bamba","6","10","4.4337","-75.8911"
"Pueblo Bajo Calima","6","11","3.998753","-76.97064"
"Acapulco - Río Amaime","6","11","3.632991","-76.10392"
"Turisteando En Atuncela","6","11","3.733508","-76.67789"
"Valle del Cauca, CO (4.468, -76.271)","6","12","4.468062","-76.27135"
"RN San Cipriano","6","12","3.875018","-76.99598"
"hostal Santa eulalia","6","12","3.479783","-76.61058"
"Auto selected 3.57488, -76.61959","6","12","3.574878","-76.61959"
"1-35 Calle 1, Cartago, Valle del Cauca, CO (4,757, -75,897) bosque seco tropical EMCARTAGO","6","12","4.75731","-75.896805"
"Reserva La bendición","6","12","3.53942","-76.76897"
"Vía a El Carmen, Valle del Cauca, CO (3.534, -76.621)","6","12","3.533857","-76.62126"
"EPSA Property (Restricted Access) - La Riquesa to Mirador (600-1100m asl.)","6","12","3.596981","-76.886955"
"El Danubio, vda. Cárpatos, Cali (PNN Farallones de Cali) 3.4093x-76.6524 - 2.290masl","6","12","3.409312","-76.652435"
"Mirador de Calima","6","12","3.883831","-76.44027"
"Parador Aquí me quedo","6","12","3.531112","-76.61998"
"CO-Valle del Cauca-El Cairo-Unnamed Road - 4.823x-76.179","6","12","4.82343","-76.1785"
"Marte","6","12","3.782752","-76.55385"
"Reserva Forestal Protectora Regional La Albania","6","12","3.96307","-76.38429"
"(3.526, -76.73a4)","6","12","3.526411","-76.73402"
"Anchicaya valley","6","12","3.616308","-76.90558"
"Vía Al Jardín De Maria","6","12","4.320785","-75.830956"
"Confluencia río Zabaletas con quebrada La Bomba","6","12","3.76272","-76.94264"
"Dos Quebradas","6","12","3.38558","-76.6294"
"hotel loma azul - (3.529, -76.616)","6","12","3.528914","-76.61591"
"AUA, Valle del Cauca, CO (3.894, -76.125)","6","12","3.893534","-76.125275"
"Estadero Aqui me Queda","6","12","3.531098","-76.62007"
"Reserva Ecotonos 1 Trayecto Parte Alta","6","12","3.571654","-76.600975"
"RN La Bretaña","6","13","4.702222","-76.21917"
"Finca Emmanuel","6","13","3.253265","-76.59936"
"Microcuenca El Jordán","6","14","4.785","-76.22845"
"Carrizal-Finca Vesubio","6","14","3.662327","-76.090839"
"Río Anchicayá","6","14","3.6142","-77.009229"
"Loma Chiquique","6","15","3.840602","-76.39034"
"Unnamed Road, Valle del Cauca, CO (3.748, -76.679)","6","15","3.749733","-76.67548"
"Confluencia río Meléndez y quebrada La Cristalina","6","15","3.36257","-76.64258"
"Reserva Municipal de Uso Sostenible del Río Meléndez","6","15","3.368543","-76.55574"
"Carretera La Habana a Frisoles","6","16","3.883596","-76.1549"
"Paramo del Duende","6","16","4.102605","-76.417435"
"Río Chancos, Sector Filo Seco","6","16","3.941111","-76.725028"
"Borrero Ayerbe/Km 30","6","17","3.573056","-76.64611"
"San Miguel Alto","6","17","3.494132","-76.61187"
"Finca Rios de Agua Viva","6","18","3.977361","-76.46054"
"Sendero Charco La Tortuga, Buenaventura CO-Valle Del Cauca 3.82953, -76.89067","6","18","3.829525","-76.89067"
"Vereda El Descanso, Valle del Cauca, CO (3.535, -76.753)","6","18","3.534676","-76.753426"
"Valle del Cauca Páramo Los Domínguez , CO (3.765, -76.061)","6","18","3.765281","-76.06091"
"CO-Valle del Cauca-La Unión- Parque De La Uva - 4.527x-76.091","6","18","4.526959","-76.090775"
"Tenerife, Valle del Cauca, CO (3.726, -76.074)","6","18","3.725999","-76.07381"
"dde 3092 a 3700 Balcones Pico Pance 3.3303 X -76.6793","6","18","3.33028","-76.67926"
"Finca el Tesoro","6","18","4.29102","-75.854675"
"Vereda La Cristalina - Finca Isamar","6","19","4.12867","-76.39685"
"La Granjita","6","19","3.954835","-76.47446"
"Finca El Porvenir, El Cairo Valle.","6","20","4.737962","-76.21088"
"El Saladito","6","20","3.482126","-76.6063"
"Unnamed Road, Atuncela, Valle del Cauca, CO (3.737, -76.676)","6","21","3.737473","-76.67558"
"Alejandría","6","21","3.768022","-76.05996"
"Pianguita","6","23","3.839992","-77.19871"
"(3.5191,-76.6195)","6","24","3.519084","-76.619545"
"Cabaña Vabel, Bitaco, Valle del Cauca, CO (3.627, -76.6)","6","24","3.627235","-76.59999"
"Bosque de la Buitrera","6","24","3.359963","-76.565895"
"(3.5192,-76.6194)","6","24","3.519194","-76.61943"
"Finca Mirador Del Topacio","6","24","3.322322","-76.63042"
"National Park Natural Farallones De Cali, Cali CO-Valle del Cauca 3.42641, -76.65397","6","24","3.426409","-76.65397"
"San Alejo Área","6","25","3.475025","-76.20172"
"Vereda Los Andes - Tenerife","6","27","3.759653","-76.06089"
"Trujillo","6","30","4.213247","-76.32049"
"La Araucana","6","30","3.57409","-76.61992"
"La Maria Buga Valle","6","32","3.902672","-76.21114"
"Fincas cafeteras de Felidia","6","32","3.470469","-76.615654"
"Colinas de arroyohondo","6","32","3.521019","-76.52823"
"Reserva Comunitaria Ecológica Venado Verde","6","34","3.870716","-76.89291"
"Villa Martica","6","35","3.503482","-76.19356"
"antigua carretera a buenaventura - (3.528, -76.741)","6","38","3.528061","-76.7406"
"Vereda EL CASTILLO, predio LA ARBOLEDA","6","38","4.775806","-76.127694"
"763517, vía Cocuyos Ginebra CO-Valle Del Cauca 3.75997, -76.19448","6","44","3.759969","-76.19448"
"La Granjita-Calima Darién","6","45","3.955091","-76.47448"
"Jardín Botanico de Cali","6","52","3.449154","-76.56887"
"Muelle turístico de Buenaventura","6","52","3.888297","-77.07973"
"Parque del Ingenio","6","53","3.386789","-76.53044"
"Bosque de las Mercedes","6","56","3.545418","-76.28857"
"DMI Atuncela","6","58","3.716972","-76.683694"
"Osprey Ecolodge","6","65","3.900304","-76.339325"
"Dapa - Las Flechas, Yumbo, Valle del Cauca, Colombia","6","85","3.557178","-76.543785"
"Parque El Gato de Tejada","6","85","3.451351","-76.543015"
"La Buitrera, Valle del Cauca, CO (3.381, -76.568)","6","100","3.381202","-76.56799"
"Carretera Vda. Los Andes - Vda. La Alejandría","6","122","3.764051","-76.05808"
"Parque Multicentro--Ruta del Sirirí","6","159","3.379673","-76.540474"
"Cartago, Madrevieja la Zapata","6","230","4.757888","-75.92774"
"Laguna de Sonso","6","230","3.83996","-76.469278"
"Universidad del Valle","6","329","3.373942","-76.53441"
"Sendero, Bosque de Niebla (La Cumbre)","5","5","3.639294","-76.552536"
"Reserva Jurasico, Finca los Carboneros","5","5","3.552339","-76.6082"
"Reserva Forestal Protectora Nacional Quebrada La Valenzuela","5","5","4.00423","-76.16756"
"Reserva Forestal Protectora de Amaime","5","5","3.743056","-76.05722"
"CO-Valle Del Cauca-Cali (3,4896,-76,6167)","5","5","3.489623","-76.61665"
"Predio La Gitana","5","5","4.1671","-76.3365"
"Reserva Natural Mi Cafetal, Vereda El Piñuelo, El Cairo, Alban, Valle del Cauca, CO (4.775, -76.185)","5","5","4.774931","-76.18465"
"CO-Valle del Cauca-Dagua - 3,539x-76,619 - 22 feb. 2017 12:32 p. m.","5","5","3.539231","-76.619064"
"CO-Valle del Cauca-Dagua-Buenaventura - 3.534x-76.754","5","5","3.534298","-76.75369"
"Predio El Tabor, vereda Balcanes alto, municipio El Dovio","5","5","4.591709","-76.32298"
"CO-Valle del Cauca-Dagua-Cali - Dagua - 3,517x-76,621","5","5","3.517446","-76.620926"
"CO-Valle del Cauca-Dagua-Buenaventura - 3.554x-76.718","5","5","3.554184","-76.7183"
"CO-Valle Del Cauca-Santiago De Cali","5","5","3.4901","-76.61611"
"Finca Rosita","5","5","3.50926","-76.62328"
"CO-Valle Del Cauca-Santiago de Cali - 3,5391x-76,6059 - 30/05/2016 12:55 p.m.","5","5","3.539123","-76.60587"
"13-124 Calle 3 Oeste, Cali, Valle del Cauca, CO (3.444, -76.543)","5","5","3.443917","-76.54276"
"Estación biológica Icesi - Farallones","5","5","3.441844","-76.66267"
"restaurante la Cabana","5","5","3.504731","-76.61882"
"Restaurante La Cabaña","5","5","3.503655","-76.61874"
"Enclave Xerofitico De Dagua","5","5","3.66","-76.690002"
"Club de Caza y Pesca, Caicedonia, Valle del Cauca, Co","5","5","4.332913","-75.82711"
"Ridge above El Salado town - 1.730m - CO-Valle Del Cauca-Dagua - 3.5583x-76.7334 - Feb 13, 2017, 08:01","5","5","3.558266","-76.733376"
"Alto AnchicayÃ¡--Puente","5","5","3.60661","-76.87972"
"Rio Anchicaya","5","5","3.654706","-77.00365"
"Via Dapa a Alto de los españoles","5","5","3.553021","-76.58515"
"Embajada de Ginebra (Km 18)","5","5","3.507852","-76.62017"
"760530, Darién CO-Valle Del Cauca 3.94426, -76.49135","5","5","3.944255","-76.49135"
"el vinculo","5","5","3.825547","-76.30039"
"El Tablazo","5","5","3.609314","-76.71605"
"Alto anchicaya sector Dora - Bogota Birding","5","5","3.533845","-76.752205"
"El Robledal","5","5","3.554319","-76.617096"
"Hacienda La Arboleda","5","5","4.352325","-75.85443"
"28 jun. 2020 8:24 a. m.-3.368, -76.597","5","5","3.367978","-76.59696"
"9 may. 2020 8:05 p. m.-3,551, -76,577","5","5","3.55119","-76.57703"
"Chorro de Plata, La Voragine, Valle del Cauca, CO (3.344, -76.597)","5","5","3.344096","-76.59729"
"29 jun. 2020 1:57 p. m.-3,746, -76,484","5","5","3.746338","-76.48386"
"Pichinde --Yanaconas","5","5","3.433333","-76.61667"
"Vereda Villa Rosa, Finca La Hacienda, Punto de censo 5","5","5","4.825278","-76.146111"
"el pailon","5","5","3.711639","-76.07522"
"Auto selected 3.52206, -76.52712","5","5","3.522064","-76.52712"
"Chicoral-Dapa 1900-2100 mts/SNM ,valle del Cauca","5","5","3.570261","-76.59423"
"Bosque La Tigra","5","5","3.49827","-76.63706"
"Road And Trail Near Dona Dora, Valle del Cauca, CO (3.534, -76.752)","5","5","3.534018","-76.75175"
"El Madrigal - Valle","5","5","3.3083","-76.5583"
"Vereda Tableros.","5","5","3.8568","-76.55327"
"Cerro Azul, Trujillo, Valle del Cauca, CO (4.275, -76.282)","5","5","4.274864","-76.28218"
"Brasito, Buenaventura","5","5","3.75358","-77.0829"
"Centro Forestal Tropical UT, Bajo Calima","5","5","4.078597","-77.03542"
"Buenaventura, Valle del Cauca, Casa Doña Dora","5","5","3.534363","-76.753456"
"Km 18/Via La Elvira, Valle del Cauca, CO (3.517, -76.621)","5","5","3.517447","-76.620834"
"km 55 ""Doña Dora""","5","5","3.525843","-76.73602"
"Colombia, Valle, Cali, Los Andes-Pichinde, Peñas Blancas","5","5","3.436283","-76.64092"
"El Descanso Doña Dora, Valle del Cauca, CO (3.535, -76.752)","5","5","3.534822","-76.75248"
"Colombia, Valle, Dagua, Km. 18, Bosque de Niebla, Finca Alejandría ""El Paraíso de los Colibríes""","5","5","3.538807","-76.606316"
"(3.897, -76.179) Casa Lago.la Habana.buga Valle","5","5","3.897097","-76.17904"
"Finca El Guaico, Valle del Cauca, CO (3.324, -76.177)","5","5","3.323617","-76.176636"
"Cascada La Milagrosa, Valle del Cauca, CO (3.877, -76.174)","5","5","3.877473","-76.17387"
"Parque Nacional de la Uva. La Unión Valle","5","5","4.529622","-76.087204"
"Vereda El Paraiso, Finca La Delia, Punto de censo 8","5","5","4.731944","-75.819167"
"Vereda El Paraiso, Finca La Delia, Punto de censo 2","5","5","4.731944","-75.819167"
"Vereda El Paraiso, Finca La Delia, Punto de censo 15","5","5","4.7225","-75.820833"
"Vereda El Paraiso, Finca La Delia, Punto de censo 10","5","5","4.704722","-75.815"
"sendero orgánico global big day","5","5","3.625645","-76.59267"
"Vereda El Pacífico-El CAIRO","5","5","4.822042","-76.17644"
"El Campanario, vereda Buenos Aires, municipio San Pedro","5","5","3.93427","-76.178635"
"Vereda El Descanso Buenaventura, Valle del Cauca, CO (3.535, -76.754)","5","5","3.534736","-76.75355"
"Cristalina","5","5","4.010861","-76.47628"
"avistamiento De Aves Doña Dora - Km 55","5","5","3.858614","-76.548935"
"Finca La Florida , Valle del Cauca, CO (3.526, -76.616)","5","5","3.52634","-76.616165"
"Finca Galaica","5","5","3.470973","-76.17116"
"Cali - Dagua, Valle del Cauca, CO (3.528, -76.617)","5","5","3.528253","-76.61718"
"Finca El tesoro, Vereda Alta Cristalina","5","5","4.008777","-76.480804"
"Parque de la Uva","5","5","4.529848","-76.08798"
"Carretera Vía Ala Cascada , CO (3.619, -76.907)","5","5","3.619438","-76.9072"
"La Neura","5","5","3.297556","-76.63719"
"La Paz - El 18, Cali CO-Valle Del Cauca 3.53933, -76.60601","5","5","3.539331","-76.60601"
"La ventura, Cerrito adentro, bello horizonte, Pie de monte","5","5","3.639355","-76.18108"
"Calle 10 3-66, Alcalá CO-Quindío 4.67683, -75.77666","5","5","4.676827","-75.77666"
"Carretera arriba de Tenerife --- Puente","5","5","3.756012","-76.06557"
"Turisteando en Atuncela","5","5","3.73119","-76.67649"
"Laguna - De Sonso","5","5","4.247303","-76.114683"
"Yerbabuena","5","5","3.625943","-76.59269"
"Valle del Cauca, CO (3.613, -76.929)","5","5","3.612664","-76.92886"
"Old Buenaventura Road: El Danubio to Agua Clara (3.6376, -76.9455)","5","5","3.6376","-76.9455"
"Finca Chambilbal, Ginebra","5","5","3.729448","-76.22499"
"Old Buenaventura road km 72 (3.591, -76.811)","5","5","3.591337","-76.81116"
"Old Buenaventura Road -Km 55 to 90","5","5","3.595503","-76.78872"
"3.5349x-76.7535 - Mar 14, 2016, 9:00 AM","5","5","3.534918","-76.75347"
"Localidad desconocida - (3,793, -76,991)","5","5","3.79297","-76.99095"
"(3.492, -76.628)","5","5","3.491519","-76.62817"
"Localidad desconocida - (3.848, -76.798)","5","5","3.848161","-76.79803"
"Valle del Cauca, CO (3,491, -76,628)","5","5","3.49133","-76.62814"
"Valle del Cauca, CO (3,374, -76,617)","5","5","3.374017","-76.61652"
"Localidad Desconocida - 3.612x-76.895 - 5 ene. 2017 06:54","5","5","3.612383","-76.89503"
"Valle del Cauca Anchicaya,CO (3,594, -76,841)","5","5","3.593803","-76.84136"
"Dagua, Valle Del Cauca, Dagua CO-Valle Del Cauca (3.5279,-76.7155)","5","5","3.527903","-76.71553"
"alejandria","5","5","3.539495","-76.60323"
"Unnamed Road, Valle del Cauca, CO (4.832, -76.184)","5","5","4.832289","-76.18362"
"Unnamed Road, Valle del Cauca, CO (4.815, -76.175)","5","5","4.814869","-76.17511"
"Unnamed Road, Fenicia, Valle del Cauca, CO (4,072, -76,387)","5","5","4.072494","-76.38726"
"Monteloro","5","5","3.971421","-76.03503"
"Unnamed Road, Valle del Cauca, CO (3.631, -76.583)","5","5","3.635863","-76.57145"
"Camino Paramo de las Dominguez","5","5","3.760046","-76.064255"
"Vereda La Palmera, RN Río Bravo","5","6","3.905616","-76.60462"
"Casa Ahsraya Cali - Dagua, Valle del Cauca, CO (3.504, -76.616)","5","6","3.503708","-76.615715"
"(3,593, -76,836) Dagua Valle Anchicaya parte media.","5","6","3.593328","-76.83634"
"Kantu, CO-Valle Del Cauca-Santiago De Cali (3.4487,-76.6216)","5","6","3.448685","-76.62163"
"Ecoparque Los Pizamos","5","6","3.438795","-76.48215"
"Carretera vieja a Buenaventura Km 80-115","5","6","3.791548","-76.990265"
"corregimiento el saladito - familia Wagner W","5","6","3.482466","-76.605804"
"Unnamed Road, Darién, Valle del Cauca, CO (3.939, -76.493)","5","6","3.938993","-76.49258"
"Quebrada Micos","5","6","3.926733","-76.676403"
"Calima, borde bosque","5","6","3.899743","-76.55292"
"Vereda Pinares, Finca El palcer, Punto de censo 10","5","6","4.656944","-75.943056"
"Acueducto","5","6","4.82677","-76.17895"
"laguna de sonso","5","6","3.724457","-76.34729"
"Casa de Zinc area, SE of Sevilla","5","6","4.2225","-75.8935"
"Hacienda Formosa","5","6","4.769929","-76.0822"
"La Reina, Villacarmelo, Valle del Cauca, CO (3.385, -76.627)","5","6","3.384604","-76.62663"
"Laguna Sonsa","5","6","3.850209","-76.33055"
"Reserva Ecologica Kantu","5","7","3.448626","-76.62172"
"Km 14 sobre el pueblo de Tenerife","5","7","3.727664","-76.078416"
"Vía sin nombre, Valle del Cauca, CO (3.45, -76.619) Cajita Alta","5","7","3.45019","-76.61869"
"Unnamed Road, Atuncela, Valle del Cauca, CO (3.736, -76.679)","5","7","3.736457","-76.67852"
"Valle del Cauca, CO (3.487, -76.216)","5","7","3.487151","-76.21555"
"(3.5887,-76.8240)","5","7","3.588678","-76.82404"
"Cabina Reserva el Paraíso","5","7","3.629429","-76.83442"
"La pema piedras","5","7","3.765193","-76.93535"
"El Cairo Reserva Natural Altomira","5","7","4.713645","-76.23598"
"El Danubio","5","7","3.594487","-76.8944"
"san Cipriano","5","7","3.837862","-76.897446"
"Vereda El Cauchal","5","7","3.604434","-76.859985"
"Sector el Verge La Elviral, Valle del Cauca, CO (3.524, -76.59)","5","7","3.523773","-76.5895"
"Yanaconas","5","7","3.417715","-76.607185"
"Villa Luz","5","7","3.546775","-76.61523"
"Embalse Calima, Entrada 5","5","7","3.910513","-76.48839"
"Sendero de las aves (Pavas)","5","7","3.679519","-76.58774"
"Ruta Calima Darien, Valle del Cauca, CO (3.946, -76.46)","5","7","3.945501","-76.45987"
"Río Agua Sucia, Cajambre, subiendo margen derecha frente a cerro caja","5","8","3.379056","-77.119597"
"Parque Nacional De La Uva","5","8","4.52941","-76.08687"
"San José Del Palmar Choco, CO (4,833, -76,182)","5","8","4.833026","-76.18237"
"Along The Road, Valle del Cauca, CO (3.529, -76.614)","5","8","3.529283","-76.613914"
"Universidad del Valle sede Meléndez","5","8","3.37472","-76.533096"
"Road with lodges. La Paz - El 18, Cali CO-Valle del Cauca (3.5318,-76.6111)","5","8","3.531847","-76.61115"
"Bajo Calima, Quebrada Ordóñez","5","8","4.075468","-76.96683"
"Reserva Natural Nirvana, Valle del Cauca, CO (3.475, -76.19)","5","8","3.475276","-76.19039"
"Felida Valle del Cauca Colombia","5","8","3.4667","-76.6167"
"Auto selected 4.71505, -75.77768 Villa Del Carmen Nature Camp","5","8","4.715047","-75.77768"
"Villacarmelo, Valle del Cauca, CO (3.383, -76.618)","5","8","3.383109","-76.618"
"Tocotá","5","8","3.510714","-76.647385"
"La Estrella - Casa de Doña Norma","5","8","3.971541","-77.04184"
"ecoparque del embudo","5","8","3.345168","-76.552956"
"Conjunto Residencial Altos de Arboleda","5","8","3.447949","-76.55046"
"Parque Ecológico Miravalle","5","9","3.259399","-76.59385"
"Finca Sierra Morena","5","9","4.39221","-75.81348"
"Alojamiento Campestre Mahayana","5","9","3.550124","-76.573586"
"Casa Ashraya, Refugio De Aves","5","9","3.503644","-76.617004"
"La Cruz, Darién CO-Valle Del Cauca 3.92442, -76.51221","5","9","3.924416","-76.512215"
"Topaz Colibri","5","9","4.526856","-76.09054"
"Vereda el Vínculo, Parque Nacional Regional El Vínculo","5","9","3.834001","-76.296872"
"Ecoparque Aguacatal, Terrón Colorado","5","9","3.461662","-76.588505"
"San Antonio, cerro de La Horqueta","5","9","3.483286","-76.650093"
"Finca Angie Vanegas","5","9","3.420025","-76.60596"
"Colegio Americano","5","9","3.378472","-76.544846"
"Via Chicoral - Dapa","5","10","3.569226","-76.577736"
"Buitrera Cali (pueblo)","5","10","3.38268","-76.57638"
"El Encanto granja y hostal de montaña (3.827, -76.026)","5","10","3.827415","-76.02641"
"CO-Valle Del Cauca-Cali (3,5281,-76,6171)","5","10","3.527171","-76.61715"
"Unknown Location - (3.44, -76.664)","5","10","3.440001","-76.66383"
"Vía Medio Dapa - E.L.","5","10","3.56138","-76.53935"
"Vereda Pichinde, La esmeralda","5","10","3.446694","-76.631528"
"Finca La Marina","5","10","4.876396","-76.01637"
"Primavera Reserve 2200m elevation","5","10","4.78432","-76.1478"
"CO-Valle Del Cauca-Santiago de Cali - 3,5677x-76,6084 - 25/02/2017, 14:29 - Finca La Chacona","5","10","3.567664","-76.60845"
"Mauricio Gonzales","5","10","3.487466","-76.63079"
"(3.3742,-76.6203)","5","10","3.37422","-76.620346"
"KM 18 Rd.","5","10","3.536026","-76.607414"
"La Hondura","5","10","4.525747","-76.27213"
"(3.771, -76.056)","5","10","3.771471","-76.05562"
"Parque De La Uva","5","10","4.527004","-76.09078"
"Km 55 - old road Cali-Bonaventura","5","10","3.5236","-76.727"
"(3,7903,-76,9879)","5","10","3.790303","-76.98792"
"11 oct. 2020 12:12 p. m.-3.572, -76.216","5","10","3.572074","-76.21631"
"Cali - Dagua, Valle del Cauca, CO (3,482, -76,606)","5","10","3.482411","-76.60574"
"Finca El Renacer","5","10","3.108","-76.613056"
"La Choza 2","5","10","3.63532","-76.83664"
"Campamento minas del Socorro","5","10","3.401754","-76.683716"
"Valle del Cauca, CO (4.537, -76.273)","5","10","4.537171","-76.27261"
"(3.6207,-76.9049)","5","10","3.620657","-76.90492"
"Restaurant (3.5078x-76.6201)","5","10","3.507839","-76.62012"
"Reserva natural Río Bravo","5","10","3.881695","-76.56213"
"RNM Pb (3,6308,-76,1959)","5","10","3.630752","-76.19592"
"Unnamed Road, Valle del Cauca, CO (3.573, -76.569)","5","10","3.572969","-76.56912"
"Bosques La Cumbre","5","10","3.639278","-76.55271"
"Finca El Porvenir","5","10","3.542704","-76.59635"
"Bosque De San Antonio, Valle del Cauca, CO (3.484, -76.611)","5","10","3.484335","-76.61111"
"Reserva Natural Altomira","5","10","4.728459","-76.24252"
"Parque Trinagular, carrera 29 con 5B (3.432, -76.54)","5","10","3.431993","-76.53982"
"Villa Pension Dapa, Valle del Cauca, CO (3.547, -76.584)","5","10","3.547284","-76.58363"
"Localidad desconocida - (3.758, -76.091)","5","10","3.758089","-76.09148"
"Reserva Natural La Argentina","5","10","4.707833","-76.21372"
"Localidad desconocida - (4.536, -76.278)","5","10","4.53606","-76.27765"
"(3.5234,-76.6174)","5","10","3.523407","-76.61743"
"Finca Esmeralda - Vereda Campo Azul","5","10","4.254561","-75.829445"
"Predio La Cabaña, vereda El Placer, Corregimiento de Montañitas","5","10","3.642584","-76.52324"
"Via a la finca Zingara, km 18","5","10","3.533653","-76.60982"
"3.5740 X -76.6199","5","10","3.57398","-76.61991"
"Predio Los Guacimos","5","11","4.4435","-75.9299"
"El Porvenir","5","11","4.735059","-76.21285"
"Agua clara(Río,lago, carretera)","5","11","3.50404","-76.23349"
"Finca La Grecia, Guaqueros, San Pedro, Valle del Cauca","5","11","3.94938","-76.19479"
"Callejón de la Balastrera, Valle del Cauca, CO (3.594, -76.2)","5","11","3.594345","-76.200325"
"Unnamed Road, Valle del Cauca, CO (3,747, -76,484)","5","11","3.746627","-76.48382"
"Sendero A Las Musgueras Verdad El pato Valle del Cauca, CO (3.442, -76.673)","5","11","3.442052","-76.67276"
"Colegio Tecnico Industrial Multiproposito--Corredor La Manga","5","11","3.411709","-76.56181"
"Finca Los Guacimos","5","11","4.443593","-75.93242"
"Alto Anchicayá - Carros Viejos","5","12","3.526537","-76.73409"
"Mirador de los vientos - Samaria Caicedonia","5","12","4.270291","-75.875374"
"Parque Nacional Natural Farallones de Cali, Alto del Buey","5","12","3.394814","-76.649242"
"Via a Montegrande, Valle del Cauca, CO (4,382, -75,809)","5","12","4.381726","-75.809044"
"casa Villa Eugenia, Cali, Valle del Cauca, CO (3,444, -76,555)","5","12","3.443989","-76.5552"
"Finca Cajamarquita","5","12","4.352097","-76.352255"
"La Hacienda","5","12","3.39511","-76.82266"
"Cooperativa Lomalarga, núcleo C, Valle del Cauca, CO (3,312, -76,575)","5","13","3.312101","-76.57476"
"(3.8862,-76.1369)","5","13","3.88619","-76.13692"
"La Cascada","5","13","3.570055","-76.930595"
"100A-138 Calle 16, Cali, Valle del Cauca, CO (3,366, -76,531)","5","13","3.365534","-76.53105"
"1-60 Carrera 54, Cali, Valle del Cauca, CO (3.412, -76.554)","5","13","3.41204","-76.55386"
"San Antonio cloud forest","5","14","3.488616","-76.62712"
"Parque Puente Cr 49 Calle 10","5","14","3.412078","-76.537575"
"Condominio Las Mercedes","5","14","3.260749","-76.566895"
"El Otoño (3.369, -76.609)","5","14","3.368704","-76.60851"
"PN de Las Hermosas","5","14","3.711392","-75.96927"
"El Zafiro","5","15","4.76375","-76.194725"
"Valle del Cauca, CO (3.628, -76.166) Apiario A Puerta Bello Horizonte Madhú","5","15","3.627746","-76.16552"
"Vía Buenos Aires, Valle del Cauca,","5","15","3.929703","-76.173805"
"760528, Dagua CO-Valle Del Cauca 3.73256, -76.67687","5","15","3.732561","-76.67687"
"Valle del Cauca, CO (3.625, -76.548)","5","15","3.624997","-76.54834"
"conjunto residencial Mont Bre","5","15","3.443085","-76.55421"
"Cali - Dagua, Valle del Cauca, CO (3,528, -76,617)","5","15","3.528432","-76.61717"
"Barrio Libertadores-Cali","5","15","3.441298","-76.54233"
"4.81x-76.172 - Oct 11, 2016 10:56","5","15","4.810464","-76.17192"
"Tamauka Trujillo Valle del Cauca, CO (4.226, -76.345)","5","15","4.22566","-76.34474"
"Reserva Forestal La Cumbre (Sector Cabaña)","5","16","3.637806","-76.57141"
"La Primavera","5","16","3.90615","-76.21186"
"Vereda LA GALANA, predio LA GALANA","5","16","4.891417","-76.023139"
"La Felicidad","5","16","3.906476","-76.20677"
"Valle del Cauca, CO (3,884, -76,439) Hotel Mirador De Calima","5","16","3.883611","-76.43928"
"Auto selected 3.52195, -76.52695","5","17","3.521949","-76.52695"
"CO-Valle Del Cauca-Buenaventura (3.7850,-76.9866)","5","17","3.784974","-76.98661"
"Edificio Monterosso","5","18","3.358272","-76.53502"
"Valle del Cauca, CO (3.613, -76.888)","5","18","3.612702","-76.88833"
"Parque Nacional de la Uva, Valle del Cauca","5","18","4.529731","-76.087364"
"Valle del Cauca, CO (3.633, -76.942)","5","19","3.6327","-76.94187"
"Barrio Pasoancho a balneario La Paya","5","19","4.530112","-76.13494"
"Unnamed Road, Valle del Cauca, CO (3.627, -76.544)","5","19","3.627271","-76.54374"
"Puente Los Patos","5","19","3.613912","-76.12454"
"Alrededores aeropuerto de Buenaventura","5","20","3.82059","-76.99999"
"Parque de la Uva. CO-Valle del Cauca-La Unión-La Victoria-La Unión - 4.53x-76.088","5","20","4.529577","-76.08762"
"Galicia","5","20","4.16026","-76.058806"
"Finca La Dicha","5","21","3.59586","-76.61025"
"Vía Antigua A Buenaventura De Aguaclara A Chorrera","5","21","3.643303","-76.9421"
"Colombia, Valle, Cali (Lili)","5","21","3.364311","-76.511566"
"Vereda Chicoral, Corregimiento de Bitaco, Finca Montebello","5","22","3.565833","-76.588611"
"Conjunto residencial Mont Bre","5","22","3.443363","-76.55413"
"La Chorrera - waterfall falling on the road below El Danubio (43km below Queremal) - 468m - 3.6232x-76.9285 - Feb 14, 2017, 12:56","5","23","3.623225","-76.92852"
"Lago Palermo, Caicedonia, Valle del Cauca, CO (4,391, -75,866)","5","23","4.39084","-75.86592"
"Antigua Via A Buenaventura, Valle del Cauca, CO (3,529, -76,744)","5","25","3.52856","-76.74358"
"Entrada 3 Parque De La Salud, Pance, Valle del Cauca, CO (3.346, -76.572)","5","25","3.346065","-76.57163"
"Vereda EL RAIZAL, predio VARIOS","5","25","4.7445","-76.139194"
"Javeriana Cali","5","26","3.348575","-76.5325"
"RN Loma Larga (3.316, -76.578)","5","26","3.316293","-76.57794"
"Yumbillo","5","26","3.586494","-76.5592"
"FODUN Tablones, CO-Valle Del Cauca 3.59691, -76.20137","5","27","3.596914","-76.20137"
"Búnker de Cerro Mosquito (ANC)","5","27","3.575719","-76.877785"
"Universidad Icesi","5","27","3.34166","-76.53063"
"31 - Reserva Madhu, Valle del Cauca, CO (3.588, -76.207)","5","28","3.587624","-76.20681"
"condominio campestre senderos de verde horizonte","5","29","3.274438","-76.5874"
"Vereda Puerta Negra, Restrepo, Valle del Cauca","5","30","3.853654","-76.57332"
"PNN Uramba-Bahia Malaga. Sector Miramar","5","30","3.988318","-77.24662"
"Rufous-crowned antpitta","5","30","3.571498","-76.88069"
"Apto MontBre en Bellavista","5","31","3.442922","-76.55404"
"5 Camino a las Colinas, Valle del Cauca, CO (3.372, -76.566)","5","32","3.372353","-76.56622"
"Callejón Tabares, Valle del Cauca, CO (3.38, -76.574)","5","34","3.380018","-76.573906"
"Scarlet-thighed Dacnis","5","37","3.575719","-76.877785"
"Quebrada La Loca (ANC)","5","41","3.571498","-76.88069"
"Humedal Parcelación La Riverita","5","49","3.359268","-76.55738"
"DRMI RUT Nativos, Vereda La Chica","5","49","4.584083","-76.118667"
"Centro Internacional de Agricultura Tropical--Palmira","5","53","3.500485","-76.349335"
"Parque Nacional de la Uva","5","53","4.52911","-76.08927"
"Humedal Chiquique","5","56","3.835656","-76.38429"
"Vereda El Porvenir (Carretera Mediacanoa-Buga)","5","58","3.890721","-76.344284"
"Parque el Oasis de las Mercedes 3.54921, -76.28740","5","82","3.54941","-76.28721"
"Destapado 1–45, Palmira CO-Valle Del Cauca (3.6264,-76.2225)","5","101","3.626398","-76.22247"
"Ecoparque Bataclán","5","139","3.470114","-76.54164"
"Casa Pomarrosa","5","139","3.383752","-76.57083"
"Haciendas de Potrerito","5","163","3.214504","-76.59505"
"Edificio Antofagasta","5","266","3.433184","-76.54574"
"760008, Finca Bello Horizonte Cali CO-Valle Del Cauca 3.49101, -76.61531","4","4","3.491011","-76.6153"
"Unnamed Road, Valle del Cauca, CO (3.503, -76.583)","4","4","3.503165","-76.58314"
"Unnamed Road, Valle del Cauca, CO (3.635, -76.578)","4","4","3.635243","-76.578415"
"Miraflores","4","4","3.833361","-76.215778"
"Camino Cerro Calima","4","4","4.054226","-76.48553"
"Unnamed Road, Valle del Cauca, CO (3.736, -76.684)","4","4","3.736214","-76.68376"
"Unnamed Road, Valle del Cauca, CO (3.252, -76.65)","4","4","3.252358","-76.64955"
"Los Nacimientos","4","4","3.36225","-76.61118"
"Predio La Sierra, correg. Carbonera, municipio Vijes","4","4","3.737984","-76.453514"
"Canta claro","4","4","3.389925","-76.584366"
"alrededores de La Cumbre","4","4","3.639849","-76.58238"
"Unnamed Road, Valle del Cauca, CO (3,738, -76,488)","4","4","3.737515","-76.4879"
"Unnamed Road, Valle del Cauca, CO (3.926, -76.512)","4","4","3.925908","-76.511856"
"Unnamed Road, Valle del Cauca, CO (3,564, -76,569)","4","4","3.564451","-76.569"
"Unnamed Road, Valle del Cauca, CO (4,387, -75,902)","4","4","4.386882","-75.90234"
"(3.6105,-76.8941)","4","4","3.610506","-76.89406"
"Unnamed Road, Valle del Cauca, CO (3,319, -76,637)","4","4","3.318589","-76.63678"
"Cañasgordas","4","4","3.3225","-76.5319"
"Cañasgordas, Cali (casa Dr Juan José Arango y alrededor)","4","4","3.322","-76.532"
"31 - Ginebra, Valle del Cauca, CO (3.488, -76.214)","4","4","3.488155","-76.213615"
"Dani y Sol finca","4","4","3.959005","-76.50593"
"Valle del Cauca, CO (3,472, -76,19)","4","4","3.471698","-76.189674"
"Alrededores de La Cumbre","4","4","3.653626","-76.57205"
"Valle del Cauca, CO (3.425, -76.616)","4","4","3.424537","-76.61648"
"(3.4912,-76.6282)","4","4","3.491214","-76.62821"
"Valle del Cauca, CO (3.514, -76.609) Posada Del Aguila","4","4","3.514053","-76.60872"
"Unknown Location - (3.534, -76.752)","4","4","3.534034","-76.7522"
"Unknown Location - (3.525, -76.618)","4","4","3.524605","-76.6179"
"Valle del Cauca, CO (3.593, -76.836)","4","4","3.593324","-76.836296"
"Carrera 5# 6-29 Pajareando desde el patio de la casa","4","4","4.761622","-76.22212"
"universidad san buenaventura","4","4","3.344351","-76.5439"
"Valle del Cauca, CO (3.625, -76.222)","4","4","3.624742","-76.222466"
"Universidad Autónoma De Occidente","4","4","3.353376","-76.5211"
"Corredor Del Lili","4","4","3.25584","-76.550934"
"Universidad Autónoma de Occidente","4","4","3.353956","-76.52233"
"Carretera arriba de Tenerife --- Almerzo y Cañon","4","4","3.764714","-76.05853"
"La Voragine, Av. Los Cerros Vía La Voragine","4","4","3.34459","-76.58964"
"Tuluá Cienegueta, Valle del Cauca, CO (4.07, -76.19)","4","4","4.069756","-76.190414"
"Consejo Comunitario de Amazonas","4","4","3.737944","-77.04383"
"Eco Hotel Hacienda El Diamante","4","4","3.893861","-76.22728"
"Carretera El Danubio al Descanso","4","4","3.587865","-76.82836"
"La Palma, Tenerife","4","4","3.699733","-76.085175"
"Transecto Albán-Las Margaritas","4","4","4.777446","-76.1778"
"Cali, Valle del Cauca, CO (3,447, -76,551)","4","4","3.446569","-76.55059"
"Valle del Cauca, CO Sendero Camino Al Cielo","4","4","3.428985","-76.662155"
"La Minga, Valle del Cauca","4","4","3.566111","-76.585"
"Toche","4","4","3.62432","-76.08655"
"La Magdalena, Valle del Cauca, CO (3.881, -76.205)","4","4","3.880975","-76.20456"
"Páramos de Barragán y Santa Lucía","4","4","3.973946","-75.90893"
"Edificio Paola Andrea","4","4","3.4877","-76.51282"
"La Italia, Reserva Natural de la Socieda Civil La Esperancita","4","4","4.084229","-76.39735"
"Vereda Barcelona Baja, Finca Calamar, Punto de censo 3","4","4","4.784167","-75.933889"
"Sierra Morena, Caicedonia","4","4","4.393075","-75.81392"
"CALI - RIO BRAVO","4","4","3.887899","-76.59605"
"Vereda Chicoral, Municipio La Cumbre, Corregimiento Bítaco","4","4","3.5746","-76.58185"
"Comensal Temperadero","4","4","3.644591","-76.576675"
"Bajo Calima - Via a Málaga","4","4","3.974955","-77.04589"
"La Devora, Reserva Natural de la Sociedad Civil La Cascada","4","4","4.20148","-76.41657"
"Villa Crispeta","4","4","3.501028","-76.5824"
"La Cumbre-Restrepo, Valle del Cauca, CO (3,678, -76,586)","4","4","3.677892","-76.58566"
"El Carmen, Valle del Cauca, CO (3,554, -76,649)","4","4","3.554403","-76.648705"
"Vereda El Paraiso, Finca La Delia, Punto de censo 16","4","4","4.704722","-75.815"
"Vereda El Paraiso, Finca La Delia, Punto de censo 17","4","4","4.695278","-75.810833"
"Parque Farallones - Valle del Cauca, CO (3.374, -76.62)","4","4","3.374205","-76.62025"
"Vereda El Paraiso, Finca La Delia, Punto de censo 4","4","4","4.704722","-75.815"
"Vereda El Paraiso, Finca La Delia, Punto de censo 9","4","4","4.7225","-75.820833"
"Sendero Acueducto Acuabuitrera","4","4","3.362634","-76.60667"
"Vereda El Peón","4","4","3.321588","-76.58144"
"CO-Valle del Cauca-Cali-Vía a Felidia - 3,455x-76,635","4","4","3.45517","-76.63518"
"El Cedro - Vereda La Cajita","4","4","3.452404","-76.61739"
"Auto selected 3.25197, -76.57364","4","4","3.251971","-76.57365"
"Casa M�quinas","4","4","3.881833","-76.588585"
"San Vicente - La Irlanda","4","4","3.279405","-76.646863"
"El Danubio La Cascada Vía A Agua Clara, CO (3.619, -76.904)","4","4","3.618835","-76.903915"
"Vereda Juntas - Ginebra","4","4","3.769175","-76.1651"
"(3,574, -76,573)","4","4","3.573589","-76.57318"
"Vereda Remolinos","4","4","3.92847","-76.47431"
"Villa Luzandi","4","4","4.667923","-75.78272"
"(3,3674,-76,5463)","4","4","3.367445","-76.546265"
"Avenida 4 Oeste, Cali, CO (3.507, -76.622)","4","4","3.507045","-76.621506"
"Bosque Santa Bárbara. Vereda La Albania","4","4","3.8","-76.5"
"road km-18 dapa","4","4","3.530335","-76.61237"
"Road below Dona Dora to waterfall.","4","4","3.52912","-76.743004"
"Reserva Los Yarumos, CO (3,442, -76,636)","4","4","3.441979","-76.636215"
"RNSC Tierra Blanca & El Tesoro (Atuncela, Dagua)","4","4","3.74116","-76.676094"
"Iridosornis Spot","4","4","3.530028","-76.749275"
"621 Carrera 5, El Cairo, Valle del Cauca, CO (4.762, -76.222)","4","4","4.761534","-76.22248"
"Auto selected 4.65851, -75.73086","4","4","4.658514","-75.73086"
"El Nido, Valle del Cauca, CO (3.452, -76.648)","4","4","3.451744","-76.64793"
"Peñas Blancas, Valle del Cauca","4","4","3.409534","-76.65448"
"Humedal Madre Vieja Videles","4","4","3.775682","-76.39414"
"Villa Cielo Pance","4","4","3.335323","-76.634796"
"Vereda Tanques, Finca Guayabo, Punto de censo 8","4","4","4.725833","-75.895833"
"10 ene. 2020 12:34 p. m.-3.529, -76.617","4","4","3.528514","-76.61675"
"Cervatana","4","4","3.934472","-76.53333"
"Bosque de san fernando","4","4","3.432871","-76.54876"
"Bosque de San Antonio/km 18 - 3.491x-76.628 - dic 25, 2016 06:10","4","4","3.491403","-76.6282"
"Vereda Villa Rosa, Finca La Hacienda, Punto de censo 12","4","4","4.815556","-76.135833"
"Zanjón del Burro","4","4","3.358072","-76.54435"
"Vereda Villa Rosa, Finca La Hacienda, Punto de censo 16","4","4","4.815556","-76.135833"
"Vereda Villa Rosa, Finca La Hacienda, Punto de censo 17","4","4","4.825278","-76.146111"
"Bosque de Neblina B&B","4","4","3.491437","-76.62774"
"Vereda Villa Rosa, Finca La Hacienda, Punto de censo 8","4","4","4.803889","-76.163611"
"Vereda Villa Rosa, Finca La Hacienda, Punto de censo 9","4","4","4.820278","-76.153333"
"Bosque de la niebla","4","4","3.462113","-76.65963"
"Versalles -- Serranía de los Paraguas","4","4","4.564255","-76.18637"
"""Hacienda Guarinó, humedal Guarinó""","4","4","3.120677","-76.563412"
"Anahauc Hotel Feeders, Pance, Valle del Cauca, CO (3.329, -76.642)","4","4","3.32853","-76.641556"
"Auto selected 3.57277, -76.55213","4","4","3.572768","-76.55213"
"Vía a Borrero Ayerbe, Cali CO-Valle Del Cauca 3.53121, -76.62009","4","4","3.531208","-76.620094"
"Rio Pance","4","4","3.319804","-76.547005"
"Ciat - Centro Internacional De Agricultura Tropical","4","4","3.516647","-76.341293"
"Río Lili--Ciudad Jardín margen izquierdo","4","4","3.367356","-76.53874"
"Bosque Alto Cielo - El Cairo Valle","4","4","4.74932","-76.19175"
"El Rosario, Valle del Cauca, CO (3.375, -76.595)","4","4","3.375111","-76.59503"
"Ciguatá","4","4","3.624072","-76.694247"
"Finca Farallones","4","4","3.77516","-76.120964"
"Río Bravo","4","4","3.880467","-76.571655"
"Vía al Boleo, Valle del Cauca, CO (3,955, -76,474)","4","4","3.955015","-76.47403"
"Barrio Pance, Caa'as Gordas No. 118-1 a 118-99","4","4","3.34995","-76.53096"
"Embalse de Guacas/Sara Brut","4","4","4.336698","-76.24902"
"Enclave de bosque seco, Finca La Profunda - Complejo de Páramos Chilí Barragán","4","4","4.07919","-75.85038"
"Club Del Departamento La Vorágine Pance","4","4","3.344901","-76.58773"
"Potrerillo; Palmira","4","4","3.55618","-76.20639"
"Predio Brasilia","4","4","3.45035","-76.62845"
"Predio El Acuario, Vereda San Antonio, Municipio Sevilla","4","4","4.203419","-75.928795"
"Alto del Río Pance, El Topacio","4","4","3.33194","-76.63844"
"Vía Potrerito-San Antonio, Valle del Cauca, CO (3.21, -76.644)","4","4","3.210185","-76.643845"
"Vía sin nombre, Valle del Cauca, CO (3,366, -76,607)","4","4","3.366022","-76.60655"
"Estación biológica universidad Icesi, estación interior","4","4","3.501967","-76.62915"
"Reserva Sociedad Civil Peña Lisa Palmira Valle del Cauca, CO (3.547, -76.079)","4","4","3.54719","-76.07914"
"Vía sin nombre, Valle del Cauca, CO (3,547, -76,584)","4","4","3.547324","-76.58438"
"Vía sin nombre, Valle del Cauca, CO (3.581, -76.557)","4","4","3.581115","-76.55737"
"CO-Valle Del Cauca-Santiago de Cali - 3,3484x-76,5688 - 30/12/2015 6:52","4","4","3.348379","-76.56877"
"CO-Valle del Cauca-Ansermanuevo-El Cairo - 4.791x-76.151","4","4","4.79104","-76.15106"
"760507, Santiago De Cali CO-Valle Del Cauca 3.52199, -76.52695","4","4","3.521994","-76.52695"
"CO-Valle Del Cauca-Roldanillo - PARQUE DE LA UVA - 4.5275x-76.0896 - Feb 12, 2017, 15:40","4","4","4.527482","-76.089615"
"Predio El Indio, vereda La Soledad, municipio Bolívar","4","4","4.30721","-76.25285"
"Reserva natural Río y Paz, Valle del Cauca, CO (3,459, -76,645)","4","4","3.459403","-76.644775"
"Quebrada El Encanto, Valle del Cauca, CO (3.336, -76.616)","4","4","3.335971","-76.61639"
"Quebrada Pericos--path to public access waterfall near road","4","4","3.843161","-76.791176"
"CO-Valle del Cauca-Cali-1282-128168 Calle 11 - 3.33x-76.541","4","4","3.329773","-76.54124"
"CO-Valle del Cauca-Dagua - Vía Finca Tokio.","4","4","3.515132","-76.70898"
"Reserva Kantu -Pichinde","4","4","3.448261","-76.62307"
"Predio La Argelia, vereda Alto San Marcos, municipio Sevilla","4","4","4.227452","-75.906906"
"CO-Valle del Cauca-Calima - 3.895x-76.633 - Feb 21, 2017 19:33","4","4","3.894583","-76.63278"
"Reserva Ecológica Kantú","4","4","3.448166","-76.621635"
"CO-Valle del Cauca-Jamundí - 3.257x-76.591 - 13 may. 2017 09:08","4","4","3.257065","-76.59102"
"Reserva Natural Bonanza 3.251x-76.651 - ene. 22, 2017 10:21 AM","4","4","3.250618","-76.65054"
"CO-Valle Del Cauca-Cali (3,5284,-76,6175)","4","4","3.528398","-76.617485"
"CO-Valle del Cauca-El Cairo - 4,747x-76,29 - 3/02/2016 9:55 a. m.","4","4","4.747387","-76.289566"
"CO-Valle del Cauca-Cali - 3.33x-76.653 - Sep 11, 2016 10:09","4","4","3.330409","-76.65315"
"Unnamed Road, Valle del Cauca, CO (3.546, -76.566)","4","4","3.545648","-76.566475"
"Buenaventura, Valle del Cauca, CO (3.531, -76.744)","4","4","3.530632","-76.74394"
"Cascada,La Palmera","4","4","4.01614","-76.499867"
"El Descanso al Danubio + 2 Kms","4","4","3.589698","-76.82988"
"Vereda La Estrella, Punto de censo 13","4","4","4.828889","-76.214722"
"Parque Nacional Farallones de Cali -- La Peña","4","4","3.43005","-76.66765"
"(4,825, -76,059)","4","4","4.825218","-76.0587"
